{
  "type": "FeatureCollection",
  "features": "[{'properties': {'RISPF_X': 287957.2, 'RISPF_Y': 318348.4, 'Name': 'REMINGTON LUMBER', 'XY_Source': 'E911', 'Date_': '19900808', 'NAD83_Lon': -71.647522, 'PloverID': '3755', 'PrjCode': '0302-LS', 'Muni': 'BURRILLVILLE', 'NAD83_Lat': 41.95691, 'FacID': '2115', 'Addrs': '1155 VICTORY HIGHWAY', 'Status': 'I'}, 'type': 'Feature', 'geometry': {'type': 'Point', 'coordinates': (287957.20080041885, 318348.3693965897)}}, {'properties': {'RISPF_X': 281327.9, 'RISPF_Y': 303311.2, 'Name': 'TEXACO', 'XY_Source': 'E911', 'Date_': '19910101', 'NAD83_Lon': -71.671783, 'PloverID': '2537', 'PrjCode': '1303-LS', 'Muni': 'GLOCESTER', 'NAD83_Lat': 41.915611, 'FacID': '432', 'Addrs': '1201 PUTNAM PIKE', 'Status': 'A'}, 'type': 'Feature', 'geometry': {'type': 'Point', 'coordinates': (281327.875, 303311.25)}}, {'properties': {'RISPF_X': 292054.3, 'RISPF_Y': 297243.9, 'Name': 'RI DOT GARAGE', 'XY_Source': 'E911', 'Date_': '19881101', 'NAD83_Lon': -71.632339, 'PloverID': '3113', 'PrjCode': '1302-LS', 'Muni': 'GLOCESTER', 'NAD83_Lat': 41.899014, 'FacID': '1290', 'Addrs': '648 PUTNAM PIKE', 'Status': 'I'}, 'type': 'Feature', 'geometry': {'type': 'Point', 'coordinates': (292054.28125, 297243.9375)}}, {'properties': {'RISPF_X': 321263.4, 'RISPF_Y': 329866.5, 'Name': 'GLOBE PARK SCHOOL', 'XY_Source': 'E911', 'Date_': '19900301', 'NAD83_Lon': -71.525085, 'PloverID': '4261', 'PrjCode': '3908-ST', 'Muni': 'WOONSOCKET', 'NAD83_Lat': 41.988609, 'FacID': '2693', 'Addrs': 'AVENUE A', 'Status': 'I'}, 'type': 'Feature', 'geometry': {'type': 'Point', 'coordinates': (321263.4375, 329866.46875)}}, {'properties': {'RISPF_X': 324096.2, 'RISPF_Y': 331231.9, 'Name': 'SAWYERS SUNOCO', 'XY_Source': 'E911', 'Date_': '19931021', 'NAD83_Lon': -71.514667, 'PloverID': '2633', 'PrjCode': '3913-LS', 'Muni': 'WOONSOCKET', 'NAD83_Lat': 41.992358, 'FacID': '587', 'Addrs': '805 PARK AVE.', 'Status': 'I'}, 'type': 'Feature', 'geometry': {'type': 'Point', 'coordinates': (324096.1511291194, 331231.94083364203)}}, {'properties': {'RISPF_X': 324275.3, 'RISPF_Y': 330969.5, 'Name': 'EXXON STATION', 'XY_Source': 'E911', 'Date_': '19931104', 'NAD83_Lon': -71.514008, 'PloverID': '1892', 'PrjCode': '3915-LS', 'Muni': 'WOONSOCKET', 'NAD83_Lat': 41.991638, 'FacID': '113', 'Addrs': '852 PARK AVENUE', 'Status': 'I'}, 'type': 'Feature', 'geometry': {'type': 'Point', 'coordinates': (324275.3125, 330969.53125)}}, {'properties': {'RISPF_X': 323835.4, 'RISPF_Y': 327718.0, 'Name': 'MOBIL STATION', 'XY_Source': 'E911', 'Date_': '19901101', 'NAD83_Lon': -71.515624, 'PloverID': '3290', 'PrjCode': '2511-LS', 'Muni': 'NORTH SMITHFIELD', 'NAD83_Lat': 41.982715, 'FacID': '217', 'Addrs': '1 PARK AVENUE', 'Status': 'A'}, 'type': 'Feature', 'geometry': {'type': 'Point', 'coordinates': (323835.3550938368, 327718.02027667314)}}, {'properties': {'RISPF_X': 314868.1, 'RISPF_Y': 317631.3, 'Name': 'PRECISION AUTO', 'XY_Source': 'E911', 'Date_': '19890512', 'NAD83_Lon': -71.548584, 'PloverID': '2892', 'PrjCode': '2504-LS', 'Muni': 'NORTH SMITHFIELD', 'NAD83_Lat': 41.955026, 'FacID': '993', 'Addrs': 'ROUTE 5 (@ ROUTE 104)', 'Status': 'I'}, 'type': 'Feature', 'geometry': {'type': 'Point', 'coordinates': (314868.1345112547, 317631.3340852633)}}, {'properties': {'RISPF_X': 318396.3, 'RISPF_Y': 306689.2, 'Name': 'BRYANT COLLEGE', 'XY_Source': 'E911', 'Date_': '19930621', 'NAD83_Lon': -71.535596, 'PloverID': '3368', 'PrjCode': '3107-LS', 'Muni': 'SMITHFIELD', 'NAD83_Lat': 41.925004, 'FacID': '1623', 'Addrs': '1150 DOUGLAS PIKE', 'Status': 'I'}, 'type': 'Feature', 'geometry': {'type': 'Point', 'coordinates': (318396.25212692097, 306689.1850378439)}}, {'properties': {'RISPF_X': 327099.2, 'RISPF_Y': 306759.2, 'Name': 'COMBINED SUPPORT MAINTENANCE PROJECT', 'XY_Source': 'E911', 'Date_': '19940408', 'NAD83_Lon': -71.503616, 'PloverID': '\\x00\\x00\\x00\\x00\\x00\\x00\\x00\\x00', 'PrjCode': '3110-ST', 'Muni': 'SMITHFIELD', 'NAD83_Lat': 41.925201, 'FacID': '1467', 'Addrs': 'ROUTE 116/ GEORGE WASHINGTON HWY', 'Status': 'I'}, 'type': 'Feature', 'geometry': {'type': 'Point', 'coordinates': (327099.1875, 306759.15625)}}, {'properties': {'RISPF_X': 302044.5, 'RISPF_Y': 293028.4, 'Name': 'HARMONY FIRE DISTRICT', 'XY_Source': 'E911', 'Date_': '19871101', 'NAD83_Lon': -71.595627, 'PloverID': '2905', 'PrjCode': '1301-LS', 'Muni': 'GLOCESTER', 'NAD83_Lat': 41.887482, 'FacID': '1008', 'Addrs': 'PUTNAM PIKE @ SAWMILL ROAD', 'Status': 'I'}, 'type': 'Feature', 'geometry': {'type': 'Point', 'coordinates': (302044.5, 293028.40625)}}, {'properties': {'RISPF_X': 330440.8, 'RISPF_Y': 318783.8, 'Name': 'PIKE MOBIL', 'XY_Source': 'E911', 'Date_': '19900209', 'NAD83_Lon': -71.491333, 'PloverID': '1901', 'PrjCode': '2508-LS', 'Muni': 'NORTH SMITHFIELD', 'NAD83_Lat': 41.958199, 'FacID': '580', 'Addrs': '1148 EDDIE DOWLING', 'Status': 'I'}, 'type': 'Feature', 'geometry': {'type': 'Point', 'coordinates': (330440.75428458676, 318783.7842081785)}}, {'properties': {'RISPF_X': 331470.2, 'RISPF_Y': 317588.3, 'Name': 'MAJESTIC MOTORS', 'XY_Source': 'E911', 'Date_': '19940101', 'NAD83_Lon': -71.487549, 'PloverID': '3930', 'PrjCode': '1815-LS', 'Muni': 'LINCOLN', 'NAD83_Lat': 41.954918, 'FacID': '2320', 'Addrs': '1300 EDDIE DOWLING HIGHWAY', 'Status': 'I'}, 'type': 'Feature', 'geometry': {'type': 'Point', 'coordinates': (331470.15625, 317588.28125)}}, {'properties': {'RISPF_X': 331914.1, 'RISPF_Y': 306050.5, 'Name': 'U S ARMY RES MAINT FAC BLDG. #68', 'XY_Source': 'E911', 'Date_': '19940802', 'NAD83_Lon': -71.485924, 'PloverID': '3398', 'PrjCode': '3112-LS', 'Muni': 'SMITHFIELD', 'NAD83_Lat': 41.923256, 'FacID': '1665', 'Addrs': '42 ALBION ROAD', 'Status': 'I'}, 'type': 'Feature', 'geometry': {'type': 'Point', 'coordinates': (331914.09375, 306050.5)}}, {'properties': {'RISPF_X': 341348.9, 'RISPF_Y': 298066.8, 'Name': 'LINCOLN DOWNS/LINCOLN GREYHOUND PARK', 'XY_Source': 'E911', 'Date_': '19930506', 'NAD83_Lon': -71.451272, 'PloverID': '4566', 'PrjCode': '1814-LS', 'Muni': 'LINCOLN', 'NAD83_Lat': 41.901338, 'FacID': '3034', 'Addrs': '1600 LOUISQUISSETT PIKE', 'Status': 'I'}, 'type': 'Feature', 'geometry': {'type': 'Point', 'coordinates': (341348.8958540857, 298066.8157996759)}}, {'properties': {'RISPF_X': 352718.2, 'RISPF_Y': 287777.2, 'Name': 'PROVIDENCE METALIZING', 'XY_Source': 'E911', 'Date_': '19940914', 'NAD83_Lon': -71.409549, 'PloverID': '3799', 'PrjCode': '2628-ST', 'Muni': 'PAWTUCKET', 'NAD83_Lat': 41.873076, 'FacID': '2172', 'Addrs': '51 FAIRLAWN AVENUE', 'Status': 'I'}, 'type': 'Feature', 'geometry': {'type': 'Point', 'coordinates': (352718.23958516866, 287777.23828175664)}}, {'properties': {'RISPF_X': 361670.0, 'RISPF_Y': 291430.8, 'Name': 'FRONTLINE', 'XY_Source': 'E911', 'Date_': '19910717', 'NAD83_Lon': -71.376662, 'PloverID': '2825', 'PrjCode': '2609-LS', 'Muni': 'PAWTUCKET', 'NAD83_Lat': 41.883071, 'FacID': '893', 'Addrs': '347 BROADWAY STREET', 'Status': 'A'}, 'type': 'Feature', 'geometry': {'type': 'Point', 'coordinates': (361669.99235092103, 291430.7857646793)}}, {'properties': {'RISPF_X': 352402.9, 'RISPF_Y': 291993.8, 'Name': 'WICKES ASSET MANAGEMENT', 'XY_Source': 'E911', 'Date_': '19921223', 'NAD83_Lon': -71.410691, 'PloverID': '3177', 'PrjCode': '1811-LS', 'Muni': 'LINCOLN', 'NAD83_Lat': 41.884648, 'FacID': '1374', 'Addrs': '100 HIGGINSON AVENUE', 'Status': 'SRO'}, 'type': 'Feature', 'geometry': {'type': 'Point', 'coordinates': (352402.87866733596, 291993.7915284261)}}, {'properties': {'RISPF_X': 356164.4, 'RISPF_Y': 294296.1, 'Name': 'MCKEE BROTHERS OIL CORPORATION', 'XY_Source': 'E911', 'Date_': '19890208', 'NAD83_Lon': -71.396868, 'PloverID': '3578', 'PrjCode': '0402-LS', 'Muni': 'CENTRAL FALLS', 'NAD83_Lat': 41.890954, 'FacID': '1895', 'Addrs': '76 SCHOOL STREET', 'Status': 'SRO'}, 'type': 'Feature', 'geometry': {'type': 'Point', 'coordinates': (356164.3635984212, 294296.1353489235)}}, {'properties': {'RISPF_X': 351052.3, 'RISPF_Y': 291160.5, 'Name': 'FAIRLAWN FIRE DEPARTMENT', 'XY_Source': 'E911', 'Date_': '19930401', 'NAD83_Lon': -71.415654, 'PloverID': '6027', 'PrjCode': '1812-LS', 'Muni': 'LINCOLN', 'NAD83_Lat': 41.882365, 'FacID': '16420', 'Addrs': '845 SMITHFIELD AVENUE', 'Status': 'I'}, 'type': 'Feature', 'geometry': {'type': 'Point', 'coordinates': (351052.3436387554, 291160.4700323418)}}, {'properties': {'RISPF_X': 359171.6, 'RISPF_Y': 295253.2, 'Name': 'HASBRO, INC.', 'XY_Source': 'E911', 'Date_': '19941026', 'NAD83_Lon': -71.385819, 'PloverID': '5129', 'PrjCode': '0406-ST', 'Muni': 'CENTRAL FALLS', 'NAD83_Lat': 41.89357, 'FacID': '3661', 'Addrs': '1033 BROAD STREET', 'Status': 'A'}, 'type': 'Feature', 'geometry': {'type': 'Point', 'coordinates': (359171.5625, 295253.15625)}}, {'properties': {'RISPF_X': 357548.6, 'RISPF_Y': 298205.1, 'Name': \"GALINDA'S AUTO SERVICE\", 'XY_Source': 'E911', 'Date_': '19940426', 'NAD83_Lon': -71.391766, 'PloverID': '2852', 'PrjCode': '0818-LS', 'Muni': 'CUMBERLAND', 'NAD83_Lat': 41.901676, 'FacID': '945', 'Addrs': '94 BROAD STREET', 'Status': 'SRO'}, 'type': 'Feature', 'geometry': {'type': 'Point', 'coordinates': (357548.58753600344, 298205.0576491803)}}, {'properties': {'RISPF_X': 357303.7, 'RISPF_Y': 302293.5, 'Name': 'LUIS AUTO SERVICE', 'XY_Source': 'E911', 'Date_': '19910227', 'NAD83_Lon': -71.392646, 'PloverID': '4779', 'PrjCode': '0810-LS', 'Muni': 'CUMBERLAND', 'NAD83_Lat': 41.912897, 'FacID': '3280', 'Addrs': '110 DEXTER STREET', 'Status': 'SRO'}, 'type': 'Feature', 'geometry': {'type': 'Point', 'coordinates': (357303.718931254, 302293.51338300854)}}, {'properties': {'RISPF_X': 351486.6, 'RISPF_Y': 306768.1, 'Name': 'CUMBERLAND L AND J AUTO', 'XY_Source': 'E911', 'Date_': '19930409', 'NAD83_Lon': -71.414001, 'PloverID': '3533', 'PrjCode': '0815-LS', 'Muni': 'CUMBERLAND', 'NAD83_Lat': 41.925194, 'FacID': '1831', 'Addrs': '721 MENDON RD.', 'Status': 'I'}, 'type': 'Feature', 'geometry': {'type': 'Point', 'coordinates': (351486.625, 306768.09375)}}, {'properties': {'RISPF_X': 348508.1, 'RISPF_Y': 308205.4, 'Name': 'OKONITE, INC.', 'XY_Source': 'TOPO', 'Date_': '19910919', 'NAD83_Lon': -71.424942, 'PloverID': '4955', 'PrjCode': '0804-LS', 'Muni': 'CUMBERLAND', 'NAD83_Lat': 41.929146, 'FacID': '3474', 'Addrs': '121 MARTIN STREET', 'Status': 'SRO'}, 'type': 'Feature', 'geometry': {'type': 'Point', 'coordinates': (348508.0625, 308205.4375)}}, {'properties': {'RISPF_X': 338855.4, 'RISPF_Y': 310325.7, 'Name': 'EASTERN UTILITIES (BVE)', 'XY_Source': 'TOPO', 'Date_': '19891215', 'NAD83_Lon': -71.46041, 'PloverID': '2624', 'PrjCode': '1804-LS', 'Muni': 'LINCOLN', 'NAD83_Lat': 41.934982, 'FacID': '558', 'Addrs': 'ROUTE 116', 'Status': 'I'}, 'type': 'Feature', 'geometry': {'type': 'Point', 'coordinates': (338855.44263630523, 310325.7087623796)}}, {'properties': {'RISPF_X': 343849.2, 'RISPF_Y': 315791.5, 'Name': 'SPOTLESS CLEANERS', 'XY_Source': 'E911', 'Date_': '19900122', 'NAD83_Lon': -71.442044, 'PloverID': '5651', 'PrjCode': '0814-LS', 'Muni': 'CUMBERLAND', 'NAD83_Lat': 41.949973, 'FacID': '15664', 'Addrs': '2026 MENDON RD.', 'Status': 'SRO'}, 'type': 'Feature', 'geometry': {'type': 'Point', 'coordinates': (343849.1785831712, 315791.48573084176)}}, {'properties': {'RISPF_X': 337679.9, 'RISPF_Y': 326906.4, 'Name': \"THERIEN'S TEXACO\", 'XY_Source': 'E911', 'Date_': '19910110', 'NAD83_Lon': -71.464705, 'PloverID': '1812', 'PrjCode': '0809-LS', 'Muni': 'CUMBERLAND', 'NAD83_Lat': 41.980484, 'FacID': '1177', 'Addrs': '3599 MENDON ROAD', 'Status': 'SRO'}, 'type': 'Feature', 'geometry': {'type': 'Point', 'coordinates': (337679.94223400205, 326906.416256845)}}, {'properties': {'RISPF_X': 364217.7, 'RISPF_Y': 295424.5, 'Name': 'ARBERKA WEBBING', 'XY_Source': 'E911', 'Date_': '19940423', 'NAD83_Lon': -71.367284, 'PloverID': '4609', 'PrjCode': '2623-LS', 'Muni': 'PAWTUCKET', 'NAD83_Lat': 41.89402, 'FacID': '3080', 'Addrs': '1135 ROOSEVELT AVENUE', 'Status': 'I'}, 'type': 'Feature', 'geometry': {'type': 'Point', 'coordinates': (364217.7034628354, 295424.53926009685)}}, {'properties': {'RISPF_X': 365505.8, 'RISPF_Y': 292296.2, 'Name': 'TEKNOR APEX - 2', 'XY_Source': 'E911', 'Date_': '19950621', 'NAD83_Lon': -71.362571, 'PloverID': '3075', 'PrjCode': '2637-ST', 'Muni': 'PAWTUCKET', 'NAD83_Lat': 41.88543, 'FacID': '1237', 'Addrs': '505 CENTRAL AVENUE', 'Status': 'A'}, 'type': 'Feature', 'geometry': {'type': 'Point', 'coordinates': (365505.8314640038, 292296.1757661775)}}, {'properties': {'RISPF_X': 364614.8, 'RISPF_Y': 291927.2, 'Name': 'AMERICAN INSULATED WIRE', 'XY_Source': 'E911', 'Date_': '19941119', 'NAD83_Lon': -71.365846, 'PloverID': '3142', 'PrjCode': '2631-ST', 'Muni': 'PAWTUCKET', 'NAD83_Lat': 41.884421, 'FacID': '1332', 'Addrs': '36 FREEMAN STREET', 'Status': 'I'}, 'type': 'Feature', 'geometry': {'type': 'Point', 'coordinates': (364614.77732640464, 291927.1868965303)}}, {'properties': {'RISPF_X': 367685.5, 'RISPF_Y': 290871.6, 'Name': 'GOFF JR. HIGH SCHOOL', 'XY_Source': 'E911', 'Date_': '19920901', 'NAD83_Lon': -71.354576, 'PloverID': '3218', 'PrjCode': '2615-ST', 'Muni': 'PAWTUCKET', 'NAD83_Lat': 41.881511, 'FacID': '1422', 'Addrs': '974 NEWPORT AVENUE', 'Status': 'A'}, 'type': 'Feature', 'geometry': {'type': 'Point', 'coordinates': (367685.48556925356, 290871.6257937625)}}, {'properties': {'RISPF_X': 253116.4, 'RISPF_Y': 262443.2, 'Name': 'FOSTER TEXACO', 'XY_Source': 'E911', 'Date_': '19900301', 'NAD83_Lon': -71.774953, 'PloverID': '1704', 'PrjCode': '1203-LS', 'Muni': 'FOSTER', 'NAD83_Lat': 41.80326, 'FacID': '291', 'Addrs': 'DANIELSON PIKE -ROUTE 6', 'Status': 'A'}, 'type': 'Feature', 'geometry': {'type': 'Point', 'coordinates': (253116.39515408874, 262443.1947898418)}}, {'properties': {'RISPF_X': 252812.6, 'RISPF_Y': 261954.9, 'Name': 'FOSTER MOBIL', 'XY_Source': 'E911', 'Date_': '19890628', 'NAD83_Lon': -71.776062, 'PloverID': '2923', 'PrjCode': '1201-LS', 'Muni': 'FOSTER', 'NAD83_Lat': 41.801917, 'FacID': '1030', 'Addrs': '175 DANIELSON PIKE - ROUTE 6', 'Status': 'I'}, 'type': 'Feature', 'geometry': {'type': 'Point', 'coordinates': (252812.575551752, 261954.91394226253)}}, {'properties': {'RISPF_X': 249965.9, 'RISPF_Y': 260267.6, 'Name': 'FOSTER SUNOCO', 'XY_Source': 'E911', 'Date_': '19900213', 'NAD83_Lon': -71.786481, 'PloverID': '2635', 'PrjCode': '1202-LS', 'Muni': 'FOSTER', 'NAD83_Lat': 41.797261, 'FacID': '590', 'Addrs': 'DANIELSON PIKE - ROUTE 6', 'Status': 'I'}, 'type': 'Feature', 'geometry': {'type': 'Point', 'coordinates': (249965.88543261628, 260267.6174908543)}}, {'properties': {'RISPF_X': 270199.9, 'RISPF_Y': 285235.8, 'Name': 'PONAGANSETT MIDDLE SCHOOL', 'XY_Source': 'E911', 'Date_': '19910301', 'NAD83_Lon': -71.712504, 'PloverID': '3442', 'PrjCode': '1304-LS', 'Muni': 'GLOCESTER', 'NAD83_Lat': 41.86594, 'FacID': '1713', 'Addrs': 'ANAN WADE ROAD', 'Status': 'I'}, 'type': 'Feature', 'geometry': {'type': 'Point', 'coordinates': (270199.8937954195, 285235.7518949285)}}, {'properties': {'RISPF_X': 264692.3, 'RISPF_Y': 276564.9, 'Name': 'RI STATE POLICE ACADEMY', 'XY_Source': 'E911', 'Date_': '19920513', 'NAD83_Lon': -71.732637, 'PloverID': '6191', 'PrjCode': '1205-ST', 'Muni': 'FOSTER', 'NAD83_Lat': 41.842107, 'FacID': '16746', 'Addrs': 'BOSS ROAD', 'Status': 'I'}, 'type': 'Feature', 'geometry': {'type': 'Point', 'coordinates': (264692.25487633795, 276564.9375436753)}}, {'properties': {'RISPF_X': 309273.0, 'RISPF_Y': 244694.4, 'Name': 'PROVIDENCE WATER SUPPLY, PURIFICATION PLANT', 'XY_Source': 'E911', 'Date_': '19940625', 'NAD83_Lon': -71.568938, 'PloverID': '5675', 'PrjCode': '3008-LS', 'Muni': 'SCITUATE', 'NAD83_Lat': 41.75486, 'FacID': '15700', 'Addrs': 'RTE 116 (NORTH RD)', 'Status': 'I'}, 'type': 'Feature', 'geometry': {'type': 'Point', 'coordinates': (309273.03513716906, 244694.3625054285)}}, {'properties': {'RISPF_X': 299507.2, 'RISPF_Y': 272877.4, 'Name': 'RI STATE POLICE BARRACKS', 'XY_Source': 'E911', 'Date_': '19900601', 'NAD83_Lon': -71.604855, 'PloverID': '3116', 'PrjCode': '3002-LS', 'Muni': 'SCITUATE', 'NAD83_Lat': 41.832175, 'FacID': '1295', 'Addrs': '311 DANIELSON PIKE', 'Status': 'I'}, 'type': 'Feature', 'geometry': {'type': 'Point', 'coordinates': (299507.2219916694, 272877.4432782605)}}, {'properties': {'RISPF_X': 303591.4, 'RISPF_Y': 273201.7, 'Name': 'NEW ENGLAND TELEPHONE', 'XY_Source': 'E911', 'Date_': '19941229', 'NAD83_Lon': -71.58987, 'PloverID': '3050', 'PrjCode': '3010-LS', 'Muni': 'SCITUATE', 'NAD83_Lat': 41.833077, 'FacID': '1209', 'Addrs': 'SILK LANE', 'Status': 'I'}, 'type': 'Feature', 'geometry': {'type': 'Point', 'coordinates': (303591.3739283383, 273201.6900050938)}}, {'properties': {'RISPF_X': 304248.9, 'RISPF_Y': 272872.6, 'Name': 'SCITUATE AUTO CENTER, (SHELL)', 'XY_Source': 'E911', 'Date_': '19931101', 'NAD83_Lon': -71.587456, 'PloverID': '2339', 'PrjCode': '3007-LS', 'Muni': 'SCITUATE', 'NAD83_Lat': 41.832176, 'FacID': '176', 'Addrs': '141 DAINELSON PIKE', 'Status': 'I'}, 'type': 'Feature', 'geometry': {'type': 'Point', 'coordinates': (304248.9375, 272872.625)}}, {'properties': {'RISPF_X': 313535.0, 'RISPF_Y': 273212.9, 'Name': 'SUNOCO STATION', 'XY_Source': 'TOPO', 'Date_': '19940922', 'NAD83_Lon': -71.553383, 'PloverID': '2651', 'PrjCode': '3009-LS', 'Muni': 'SCITUATE', 'NAD83_Lat': 41.833131, 'FacID': '631', 'Addrs': '2654 HARTFORD PIKE', 'Status': 'A'}, 'type': 'Feature', 'geometry': {'type': 'Point', 'coordinates': (313534.9536219091, 273212.9361609799)}}, {'properties': {'RISPF_X': 324594.8, 'RISPF_Y': 270975.9, 'Name': 'SHELL STATION', 'XY_Source': 'E911', 'Date_': '19890330', 'NAD83_Lon': -71.512799, 'PloverID': '2753', 'PrjCode': '1603-LS', 'Muni': 'JOHNSTON', 'NAD83_Lat': 41.827004, 'FacID': '799', 'Addrs': '1680 HARTFORD AVENUE', 'Status': 'I'}, 'type': 'Feature', 'geometry': {'type': 'Point', 'coordinates': (324594.84045150504, 270975.924771592)}}, {'properties': {'RISPF_X': 327478.2, 'RISPF_Y': 269702.2, 'Name': 'FAIRLAWN GETTY', 'XY_Source': 'TOPO', 'Date_': '19880417', 'NAD83_Lon': -71.50222, 'PloverID': '3376', 'PrjCode': '1602-LS', 'Muni': 'JOHNSTON', 'NAD83_Lat': 41.823509, 'FacID': '1636', 'Addrs': '1450 HARTFORD AVENUE', 'Status': 'I'}, 'type': 'Feature', 'geometry': {'type': 'Point', 'coordinates': (327478.1875, 269702.25)}}, {'properties': {'RISPF_X': 322298.6, 'RISPF_Y': 286537.9, 'Name': 'MOBIL STATION #01-921', 'XY_Source': 'E911', 'Date_': '19850401', 'NAD83_Lon': -71.521238, 'PloverID': '1852', 'PrjCode': '3101-LS', 'Muni': 'SMITHFIELD', 'NAD83_Lat': 41.869708, 'FacID': '1014', 'Addrs': '354 PUTNAM PIKE, ROUTES 44 AND 295', 'Status': 'I'}, 'type': 'Feature', 'geometry': {'type': 'Point', 'coordinates': (322298.5717855291, 286537.92919942684)}}, {'properties': {'RISPF_X': 328319.5, 'RISPF_Y': 286395.4, 'Name': 'OCTEAU OIL COMPANY', 'XY_Source': 'E911', 'Date_': '19940928', 'NAD83_Lon': -71.499133, 'PloverID': '4481', 'PrjCode': '2413-ST', 'Muni': 'NORTH PROVIDENCE', 'NAD83_Lat': 41.869319, 'FacID': '2935', 'Addrs': '7 ADAMS STREET', 'Status': 'SRO'}, 'type': 'Feature', 'geometry': {'type': 'Point', 'coordinates': (328319.4701413363, 286395.44445742667)}}, {'properties': {'RISPF_X': 341816.1, 'RISPF_Y': 284384.9, 'Name': 'FORMEX (ZIEG)', 'XY_Source': 'E911', 'Date_': '19880301', 'NAD83_Lon': -71.449585, 'PloverID': '5551', 'PrjCode': '2402-LS', 'Muni': 'NORTH PROVIDENCE', 'NAD83_Lat': 41.863791, 'FacID': '15499', 'Addrs': '1620 MINERAL SPRING AVENUE', 'Status': 'I'}, 'type': 'Feature', 'geometry': {'type': 'Point', 'coordinates': (341816.0953790024, 284384.9274810925)}}, {'properties': {'RISPF_X': 343821.1, 'RISPF_Y': 280854.0, 'Name': 'BRAEBURN APARTMENTS', 'XY_Source': 'E911', 'Date_': '19920601', 'NAD83_Lon': -71.442234, 'PloverID': '4852', 'PrjCode': '2837-LS', 'Muni': 'PROVIDENCE', 'NAD83_Lat': 41.854098, 'FacID': '3362', 'Addrs': '50 BURNS STREET', 'Status': 'I'}, 'type': 'Feature', 'geometry': {'type': 'Point', 'coordinates': (343821.0510147549, 280854.02312559634)}}, {'properties': {'RISPF_X': 335297.3, 'RISPF_Y': 280848.6, 'Name': 'F. RONCI', 'XY_Source': 'E911', 'Date_': '19931207', 'NAD83_Lon': -71.473521, 'PloverID': '6128', 'PrjCode': '2411-ST', 'Muni': 'NORTH PROVIDENCE', 'NAD83_Lat': 41.854094, 'FacID': '16620', 'Addrs': '2 ATLANTIC AVE.', 'Status': 'I'}, 'type': 'Feature', 'geometry': {'type': 'Point', 'coordinates': (335297.34148798266, 280848.59869227686)}}, {'properties': {'RISPF_X': 347706.8, 'RISPF_Y': 276863.1, 'Name': 'GIANFRANCESCO, LUIGI', 'XY_Source': 'E911', 'Date_': '19941004', 'NAD83_Lon': -71.427983, 'PloverID': '5043', 'PrjCode': '2896-LS', 'Muni': 'PROVIDENCE', 'NAD83_Lat': 41.843138, 'FacID': '3568', 'Addrs': '472 DOUGLAS AVENUE', 'Status': 'I'}, 'type': 'Feature', 'geometry': {'type': 'Point', 'coordinates': (347706.778151419, 276863.08491326123)}}, {'properties': {'RISPF_X': 336029.6, 'RISPF_Y': 280915.9, 'Name': 'SHELL STATION', 'XY_Source': 'TOPO', 'Date_': '19890301', 'NAD83_Lon': -71.470833, 'PloverID': '2756', 'PrjCode': '2401-LS', 'Muni': 'NORTH PROVIDENCE', 'NAD83_Lat': 41.854279, 'FacID': '805', 'Addrs': '1794 SMITH STREET', 'Status': 'I'}, 'type': 'Feature', 'geometry': {'type': 'Point', 'coordinates': (336029.5625, 280915.9375)}}, {'properties': {'RISPF_X': 344831.7, 'RISPF_Y': 278911.4, 'Name': 'SHELL STATION', 'XY_Source': 'E911', 'Date_': '19940224', 'NAD83_Lon': -71.438529, 'PloverID': '1610', 'PrjCode': '2817-LS', 'Muni': 'PROVIDENCE', 'NAD83_Lat': 41.848765, 'FacID': '900', 'Addrs': '664 ADMIRAL STREET', 'Status': 'A'}, 'type': 'Feature', 'geometry': {'type': 'Point', 'coordinates': (344831.6677599214, 278911.35673534125)}}, {'properties': {'RISPF_X': 342604.4, 'RISPF_Y': 277016.7, 'Name': 'MOBIL STATION', 'XY_Source': 'E911', 'Date_': '19901101', 'NAD83_Lon': -71.446708, 'PloverID': '1849', 'PrjCode': '2816-LS', 'Muni': 'PROVIDENCE', 'NAD83_Lat': 41.84357, 'FacID': '1520', 'Addrs': '1055 SMITH STREET', 'Status': 'A'}, 'type': 'Feature', 'geometry': {'type': 'Point', 'coordinates': (342604.3985924199, 277016.7338841781)}}, {'properties': {'RISPF_X': 347952.7, 'RISPF_Y': 275197.3, 'Name': 'B & D ASSOCIATES', 'XY_Source': 'E911', 'Date_': '19930831', 'NAD83_Lon': -71.427086, 'PloverID': '5962', 'PrjCode': '2858-LS', 'Muni': 'PROVIDENCE', 'NAD83_Lat': 41.838566, 'FacID': '16256', 'Addrs': '145 CHAD BROWN ST.', 'Status': 'I'}, 'type': 'Feature', 'geometry': {'type': 'Point', 'coordinates': (347952.71875, 275197.3125)}}, {'properties': {'RISPF_X': 341343.6, 'RISPF_Y': 275172.8, 'Name': \"DUVA'S TEXACO SERVICE STATION\", 'XY_Source': 'E911', 'Date_': '19930421', 'NAD83_Lon': -71.451339, 'PloverID': '2048', 'PrjCode': '2848-LS', 'Muni': 'PROVIDENCE', 'NAD83_Lat': 41.838511, 'FacID': '1483', 'Addrs': '435 MT PLEASANT AVENUE', 'Status': 'A'}, 'type': 'Feature', 'geometry': {'type': 'Point', 'coordinates': (341343.6468488388, 275172.7657873407)}}, {'properties': {'RISPF_X': 348384.5, 'RISPF_Y': 272435.7, 'Name': 'HALLAMORE CORPORATION', 'XY_Source': 'PHOTO', 'Date_': '19921125', 'NAD83_Lon': -71.42551, 'PloverID': '4483', 'PrjCode': '2841-LS', 'Muni': 'PROVIDENCE', 'NAD83_Lat': 41.830986, 'FacID': '2937', 'Addrs': '500 VALLEY STREET', 'Status': 'SRO'}, 'type': 'Feature', 'geometry': {'type': 'Point', 'coordinates': (348384.47619957995, 272435.69954100536)}}, {'properties': {'RISPF_X': 339506.4, 'RISPF_Y': 270509.5, 'Name': \"DON'S GARAGE\", 'XY_Source': 'E911', 'Date_': '19930520', 'NAD83_Lon': -71.45809, 'PloverID': '6044', 'PrjCode': '2850-LS', 'Muni': 'PROVIDENCE', 'NAD83_Lat': 41.825717, 'FacID': '16452', 'Addrs': '522-524 MANTON AVE.', 'Status': 'I'}, 'type': 'Feature', 'geometry': {'type': 'Point', 'coordinates': (339506.3723081723, 270509.5162555948)}}, {'properties': {'RISPF_X': 342064.9, 'RISPF_Y': 269115.8, 'Name': 'ALLIANCE MOTORS SALES', 'XY_Source': 'E911', 'Date_': '19940625', 'NAD83_Lon': -71.448705, 'PloverID': '5060', 'PrjCode': '2888-LS', 'Muni': 'PROVIDENCE', 'NAD83_Lat': 41.821889, 'FacID': '3586', 'Addrs': '252 MANTON AVENUE', 'Status': 'I'}, 'type': 'Feature', 'geometry': {'type': 'Point', 'coordinates': (342064.9201050015, 269115.82456007216)}}, {'properties': {'RISPF_X': 328549.4, 'RISPF_Y': 269689.7, 'Name': 'MOBIL STATION', 'XY_Source': 'E911', 'Date_': '19900110', 'NAD83_Lon': -71.49829, 'PloverID': '1887', 'PrjCode': '1604-LS', 'Muni': 'JOHNSTON', 'NAD83_Lat': 41.823475, 'FacID': '1525', 'Addrs': '1396 HARTFORD AVENUE @ ATWOOD AVENUE', 'Status': 'I'}, 'type': 'Feature', 'geometry': {'type': 'Point', 'coordinates': (328549.4112825021, 269689.6701262593)}}, {'properties': {'RISPF_X': 341655.2, 'RISPF_Y': 268876.6, 'Name': 'MAGGIACOMO, PIERRE', 'XY_Source': 'E911', 'Date_': '19920526', 'NAD83_Lon': -71.450209, 'PloverID': '4953', 'PrjCode': '2836-LS', 'Muni': 'PROVIDENCE', 'NAD83_Lat': 41.821233, 'FacID': '3472', 'Addrs': '100 BOSWORTH STREET', 'Status': 'I'}, 'type': 'Feature', 'geometry': {'type': 'Point', 'coordinates': (341655.16151059495, 268876.56340796914)}}, {'properties': {'RISPF_X': 330548.9, 'RISPF_Y': 263128.3, 'Name': 'CUMBERLAND FARMS', 'XY_Source': 'TOPO', 'Date_': '19940816', 'NAD83_Lon': -71.490957, 'PloverID': '2735', 'PrjCode': '1615-LS', 'Muni': 'JOHNSTON', 'NAD83_Lat': 41.805468, 'FacID': '754', 'Addrs': '1170 ATWOOD AVENUE', 'Status': 'I'}, 'type': 'Feature', 'geometry': {'type': 'Point', 'coordinates': (330548.94370075315, 263128.25870842487)}}, {'properties': {'RISPF_X': 346820.5, 'RISPF_Y': 265353.5, 'Name': 'PROVIDENCE REDEVELOPMENT - 1', 'XY_Source': 'E911', 'Date_': '19921209', 'NAD83_Lon': -71.43127, 'PloverID': '6178', 'PrjCode': '2843-LS', 'Muni': 'PROVIDENCE', 'NAD83_Lat': 41.811555, 'FacID': '16719', 'Addrs': '392 CRANSTON STREET', 'Status': 'I'}, 'type': 'Feature', 'geometry': {'type': 'Point', 'coordinates': (346820.51778483763, 265353.4543892592)}}, {'properties': {'RISPF_X': 334569.8, 'RISPF_Y': 260138.6, 'Name': 'RICH PAPER BOX', 'XY_Source': 'E911', 'Date_': '19930819', 'NAD83_Lon': -71.476212, 'PloverID': '6082', 'PrjCode': '1609-LS', 'Muni': 'JOHNSTON', 'NAD83_Lat': 41.797262, 'FacID': '16521', 'Addrs': '75 POCASSETT ST.', 'Status': 'I'}, 'type': 'Feature', 'geometry': {'type': 'Point', 'coordinates': (334569.7965514213, 260138.62197117507)}}, {'properties': {'RISPF_X': 339378.2, 'RISPF_Y': 261861.4, 'Name': 'CONNETTA PROPERTY', 'XY_Source': 'E911', 'Date_': '19930401', 'NAD83_Lon': -71.458575, 'PloverID': '6024', 'PrjCode': '0721-LS', 'Muni': 'CRANSTON', 'NAD83_Lat': 41.801984, 'FacID': '16414', 'Addrs': '441 DYER AVENUE', 'Status': 'I'}, 'type': 'Feature', 'geometry': {'type': 'Point', 'coordinates': (339378.1953991689, 261861.37508734316)}}, {'properties': {'RISPF_X': 339823.1, 'RISPF_Y': 254977.3, 'Name': 'PARK AVE. CEMENT', 'XY_Source': 'E911', 'Date_': '19930610', 'NAD83_Lon': -71.456956, 'PloverID': '5059', 'PrjCode': '0722-LS', 'Muni': 'CRANSTON', 'NAD83_Lat': 41.783092, 'FacID': '3585', 'Addrs': '30 BUDLONG ROAD', 'Status': 'SRO'}, 'type': 'Feature', 'geometry': {'type': 'Point', 'coordinates': (339823.135782253, 254977.28714951128)}}, {'properties': {'RISPF_X': 343549.3, 'RISPF_Y': 261680.4, 'Name': 'FALSTAFF BREWERY', 'XY_Source': 'E911', 'Date_': '19931203', 'NAD83_Lon': -71.443278, 'PloverID': '8005', 'PrjCode': '0731-LS', 'Muni': 'CRANSTON', 'NAD83_Lat': 41.801481, 'FacID': '19254', 'Addrs': '1 NEW DEPOT AVE.', 'Status': 'A'}, 'type': 'Feature', 'geometry': {'type': 'Point', 'coordinates': (343549.30519817106, 261680.37089109275)}}, {'properties': {'RISPF_X': 343616.7, 'RISPF_Y': 246904.6, 'Name': 'GETTY STATION #68619', 'XY_Source': 'E911', 'Date_': '19940428', 'NAD83_Lon': -71.443066, 'PloverID': '1755', 'PrjCode': '0734-LS', 'Muni': 'CRANSTON', 'NAD83_Lat': 41.760933, 'FacID': '446', 'Addrs': '899 PONTIAC AVENUE', 'Status': 'A'}, 'type': 'Feature', 'geometry': {'type': 'Point', 'coordinates': (343616.7240050731, 246904.58976906934)}}, {'properties': {'RISPF_X': 344945.9, 'RISPF_Y': 245346.5, 'Name': 'RYDER TRUCK RENTAL INC.', 'XY_Source': 'E911', 'Date_': '19891110', 'NAD83_Lon': -71.438199, 'PloverID': '3518', 'PrjCode': '3515-LS', 'Muni': 'WARWICK', 'NAD83_Lat': 41.756654, 'FacID': '1814', 'Addrs': '1 JEFFERSON BOULEVARD', 'Status': 'I'}, 'type': 'Feature', 'geometry': {'type': 'Point', 'coordinates': (344945.903095752, 245346.54066301137)}}, {'properties': {'RISPF_X': 345366.4, 'RISPF_Y': 244138.7, 'Name': 'EXXON STATION R/S 3-5737', 'XY_Source': 'E911', 'Date_': '19920314', 'NAD83_Lon': -71.436661, 'PloverID': '1532', 'PrjCode': '3502-LS', 'Muni': 'WARWICK', 'NAD83_Lat': 41.753339, 'FacID': '1258', 'Addrs': '15 JEFFERSON BLVD.', 'Status': 'I'}, 'type': 'Feature', 'geometry': {'type': 'Point', 'coordinates': (345366.38880333677, 244138.67595276237)}}, {'properties': {'RISPF_X': 345626.5, 'RISPF_Y': 243847.0, 'Name': 'GETTY STATION', 'XY_Source': 'E911', 'Date_': '19890731', 'NAD83_Lon': -71.435708, 'PloverID': '1791', 'PrjCode': '3513-LS', 'Muni': 'WARWICK', 'NAD83_Lat': 41.752538, 'FacID': '445', 'Addrs': '33 JEFFERSON BLVD.', 'Status': 'I'}, 'type': 'Feature', 'geometry': {'type': 'Point', 'coordinates': (345626.4584931694, 243847.0092132613)}}, {'properties': {'RISPF_X': 350726.0, 'RISPF_Y': 243703.6, 'Name': 'POST ROAD DAIRY MART', 'XY_Source': 'E911', 'Date_': '19930528', 'NAD83_Lon': -71.41702, 'PloverID': '1684', 'PrjCode': '3526-LS', 'Muni': 'WARWICK', 'NAD83_Lat': 41.752132, 'FacID': '1622', 'Addrs': '885 POST ROAD', 'Status': 'A'}, 'type': 'Feature', 'geometry': {'type': 'Point', 'coordinates': (350726.00702108815, 243703.6062848419)}}, {'properties': {'RISPF_X': 350103.2, 'RISPF_Y': 255169.3, 'Name': 'EMELINE', 'XY_Source': 'E911', 'Date_': '19940530', 'NAD83_Lon': -71.419263, 'PloverID': '6186', 'PrjCode': '0735-ST', 'Muni': 'CRANSTON', 'NAD83_Lat': 41.783599, 'FacID': '16738', 'Addrs': '1655 ELMWOOD AVENUE', 'Status': 'I'}, 'type': 'Feature', 'geometry': {'type': 'Point', 'coordinates': (350103.1880567521, 255169.31137175858)}}, {'properties': {'RISPF_X': 348039.1, 'RISPF_Y': 251361.5, 'Name': 'ODS PARTNERSHIP', 'XY_Source': 'E911', 'Date_': '19920403', 'NAD83_Lon': -71.426843, 'PloverID': '5452', 'PrjCode': '0713-LS', 'Muni': 'CRANSTON', 'NAD83_Lat': 41.773154, 'FacID': '15319', 'Addrs': '530 WELLINGTON AVENUE', 'Status': 'A'}, 'type': 'Feature', 'geometry': {'type': 'Point', 'coordinates': (348039.0673672506, 251361.4580450537)}}, {'properties': {'RISPF_X': 354518.8, 'RISPF_Y': 251999.2, 'Name': 'SPEEDY OIL  (FORMER J.& S. MARKET)', 'XY_Source': 'E911', 'Date_': '19940102', 'NAD83_Lon': -71.403087, 'PloverID': '1977', 'PrjCode': '0741-LS', 'Muni': 'CRANSTON', 'NAD83_Lat': 41.774887, 'FacID': '1909', 'Addrs': '95 WARWICK AVENUE', 'Status': 'A'}, 'type': 'Feature', 'geometry': {'type': 'Point', 'coordinates': (354518.7566534206, 251999.19927367568)}}, {'properties': {'RISPF_X': 343914.8, 'RISPF_Y': 254499.5, 'Name': 'CRANSTON ASSOCIATES', 'XY_Source': 'TOPO', 'Date_': '19900301', 'NAD83_Lon': -71.441955, 'PloverID': '4213', 'PrjCode': '0707-LS', 'Muni': 'CRANSTON', 'NAD83_Lat': 41.781774, 'FacID': '2635', 'Addrs': '999 PARK AVENUE', 'Status': 'I'}, 'type': 'Feature', 'geometry': {'type': 'Point', 'coordinates': (343914.7634792592, 254499.5111283984)}}, {'properties': {'RISPF_X': 345638.2, 'RISPF_Y': 255856.9, 'Name': 'MERIT STATION', 'XY_Source': 'E911', 'Date_': '19880101', 'NAD83_Lon': -71.435633, 'PloverID': '2810', 'PrjCode': '0701-LS', 'Muni': 'CRANSTON', 'NAD83_Lat': 41.785496, 'FacID': '874', 'Addrs': '475 RESERVOIR AVENUE', 'Status': 'A'}, 'type': 'Feature', 'geometry': {'type': 'Point', 'coordinates': (345638.1707400866, 255856.9054690078)}}, {'properties': {'RISPF_X': 360313.6, 'RISPF_Y': 257832.3, 'Name': 'PORT OF PROVIDENCE', 'XY_Source': 'TOPO', 'Date_': '19920312', 'NAD83_Lon': -71.381813, 'PloverID': '\\x00\\x00\\x00\\x00\\x00\\x00\\x00\\x00', 'PrjCode': '2833-LS', 'Muni': 'PROVIDENCE', 'NAD83_Lat': 41.790874, 'FacID': b'                                                                                                                                                                                                                                                              ', 'Addrs': 'PORT OF PROVIDENCE', 'Status': 'I'}, 'type': 'Feature', 'geometry': {'type': 'Point', 'coordinates': (360313.625, 257832.34375)}}, {'properties': {'RISPF_X': 358325.2, 'RISPF_Y': 258982.1, 'Name': 'NARR BAY COMMISSION', 'XY_Source': 'E911', 'Date_': '19910905', 'NAD83_Lon': -71.389099, 'PloverID': '2485', 'PrjCode': '2827-LS', 'Muni': 'PROVIDENCE', 'NAD83_Lat': 41.794037, 'FacID': '366', 'Addrs': 'FIELDS PT.', 'Status': 'I'}, 'type': 'Feature', 'geometry': {'type': 'Point', 'coordinates': (358325.1875, 258982.0625)}}, {'properties': {'RISPF_X': 344776.6, 'RISPF_Y': 258938.3, 'Name': 'LIBERTY CHEVROLET', 'XY_Source': 'E911', 'Date_': '19930630', 'NAD83_Lon': -71.438784, 'PloverID': '3395', 'PrjCode': '2853-LS', 'Muni': 'PROVIDENCE', 'NAD83_Lat': 41.793954, 'FacID': '1662', 'Addrs': '333 NIANTIC AVE.', 'Status': 'I'}, 'type': 'Feature', 'geometry': {'type': 'Point', 'coordinates': (344776.5733819194, 258938.3231906742)}}, {'properties': {'RISPF_X': 355691.9, 'RISPF_Y': 260254.9, 'Name': 'STAR SERVICE STATION', 'XY_Source': 'E911', 'Date_': '19890201', 'NAD83_Lon': -71.39875, 'PloverID': '2006', 'PrjCode': '2807-LS', 'Muni': 'PROVIDENCE', 'NAD83_Lat': 41.797539, 'FacID': '429', 'Addrs': '540 ALLENS AVENUE', 'Status': 'I'}, 'type': 'Feature', 'geometry': {'type': 'Point', 'coordinates': (355691.875, 260254.890625)}}, {'properties': {'RISPF_X': 354312.1, 'RISPF_Y': 263163.9, 'Name': 'PETRO OIL', 'XY_Source': 'TOPO', 'Date_': '19881219', 'NAD83_Lon': -71.403798, 'PloverID': '\\x00\\x00\\x00\\x00\\x00\\x00\\x00\\x00', 'PrjCode': '2806-LS', 'Muni': 'PROVIDENCE', 'NAD83_Lat': 41.805526, 'FacID': '107', 'Addrs': 'POE STREET @ PLEASURE STREET', 'Status': 'I'}, 'type': 'Feature', 'geometry': {'type': 'Point', 'coordinates': (354312.11755764316, 263163.85703422036)}}, {'properties': {'RISPF_X': 354219.7, 'RISPF_Y': 265288.6, 'Name': 'C.H.SPRAGUE AND SONS, INC.', 'XY_Source': 'E911', 'Date_': '19920225', 'NAD83_Lon': -71.404129, 'PloverID': '\\x00\\x00\\x00\\x00\\x00\\x00\\x00\\x00', 'PrjCode': '2831-LS', 'Muni': 'PROVIDENCE', 'NAD83_Lat': 41.811357, 'FacID': b'                                                                                                                                                                                                                                                              ', 'Addrs': '149 ALLENS AVENUE', 'Status': 'I'}, 'type': 'Feature', 'geometry': {'type': 'Point', 'coordinates': (354219.6666666666, 265288.6458333333)}}, {'properties': {'RISPF_X': 352271.5, 'RISPF_Y': 267920.7, 'Name': 'BRIAN SUPPLY COMPANY', 'XY_Source': 'E911', 'Date_': '19931223', 'NAD83_Lon': -71.411265, 'PloverID': '6134', 'PrjCode': '2870-LS', 'Muni': 'PROVIDENCE', 'NAD83_Lat': 41.818586, 'FacID': '16634', 'Addrs': '111 CHESTNUT STREET', 'Status': 'I'}, 'type': 'Feature', 'geometry': {'type': 'Point', 'coordinates': (352271.5183657557, 267920.6756327599)}}, {'properties': {'RISPF_X': 359675.1, 'RISPF_Y': 268377.9, 'Name': 'AGR PROPERTIES', 'XY_Source': 'E911', 'Date_': '19900828', 'NAD83_Lon': -71.384102, 'PloverID': '4776', 'PrjCode': '1011-LS', 'Muni': 'EAST PROVIDENCE', 'NAD83_Lat': 41.819816, 'FacID': '3277', 'Addrs': '100 WATER STREET', 'Status': 'SRO'}, 'type': 'Feature', 'geometry': {'type': 'Point', 'coordinates': (359675.14496267214, 268377.8928941786)}}, {'properties': {'RISPF_X': 363402.2, 'RISPF_Y': 272682.0, 'Name': 'CAPITOL HILL PROPERTIES', 'XY_Source': 'E911', 'Date_': '19911230', 'NAD83_Lon': -71.370405, 'PloverID': '3824', 'PrjCode': '1017-LS', 'Muni': 'EAST PROVIDENCE', 'NAD83_Lat': 41.831613, 'FacID': '2200', 'Addrs': '100 DEXTER RD.', 'Status': 'SRO'}, 'type': 'Feature', 'geometry': {'type': 'Point', 'coordinates': (363402.20706233755, 272681.95383984596)}}, {'properties': {'RISPF_X': 352337.5, 'RISPF_Y': 270199.4, 'Name': 'FLEET BANK', 'XY_Source': 'E911', 'Date_': '19930901', 'NAD83_Lon': -71.411014, 'PloverID': '3163', 'PrjCode': '2891-ST', 'Muni': 'PROVIDENCE', 'NAD83_Lat': 41.824839, 'FacID': '1360', 'Addrs': '111 WESTMINSTER STREET', 'Status': 'I'}, 'type': 'Feature', 'geometry': {'type': 'Point', 'coordinates': (352337.5126563385, 270199.3597236797)}}, {'properties': {'RISPF_X': 352743.6, 'RISPF_Y': 271363.4, 'Name': 'SHBOOMS', 'XY_Source': 'E911', 'Date_': '19910725', 'NAD83_Lon': -71.40952, 'PloverID': '5908', 'PrjCode': '2825-ST', 'Muni': 'PROVIDENCE', 'NAD83_Lat': 41.828032, 'FacID': '16141', 'Addrs': '108 NORTH MAIN STREET', 'Status': 'A'}, 'type': 'Feature', 'geometry': {'type': 'Point', 'coordinates': (352743.61519058794, 271363.4217000082)}}, {'properties': {'RISPF_X': 357553.7, 'RISPF_Y': 271806.0, 'Name': '395 ANGEL STREET ASSOCIATES', 'XY_Source': 'E911', 'Date_': '19940722', 'NAD83_Lon': -71.391869, 'PloverID': '6215', 'PrjCode': '2890-ST', 'Muni': 'PROVIDENCE', 'NAD83_Lat': 41.829231, 'FacID': '16794', 'Addrs': '395 ANGEL STREET', 'Status': 'SRO'}, 'type': 'Feature', 'geometry': {'type': 'Point', 'coordinates': (357553.7276175879, 271805.9572322592)}}, {'properties': {'RISPF_X': 355191.1, 'RISPF_Y': 271830.3, 'Name': 'GOLDSTEIN, EUGENE S.', 'XY_Source': 'E911', 'Date_': '19931207', 'NAD83_Lon': -71.400538, 'PloverID': '6129', 'PrjCode': '2868-LS', 'Muni': 'PROVIDENCE', 'NAD83_Lat': 41.829306, 'FacID': '16622', 'Addrs': '271 THAYER ST.', 'Status': 'I'}, 'type': 'Feature', 'geometry': {'type': 'Point', 'coordinates': (355191.10635858774, 271830.26262984425)}}, {'properties': {'RISPF_X': 352563.6, 'RISPF_Y': 271395.2, 'Name': 'CANAL PROPERTIES', 'XY_Source': 'E911', 'Date_': '19890205', 'NAD83_Lon': -71.41018, 'PloverID': '6935', 'PrjCode': '2808-LS', 'Muni': 'PROVIDENCE', 'NAD83_Lat': 41.82812, 'FacID': '18532', 'Addrs': '189 CANAL STREET', 'Status': 'I'}, 'type': 'Feature', 'geometry': {'type': 'Point', 'coordinates': (352563.5541990027, 271395.1932900101)}}, {'properties': {'RISPF_X': 352948.2, 'RISPF_Y': 275543.7, 'Name': 'SHELL STATION', 'XY_Source': 'E911', 'Date_': '19890405', 'NAD83_Lon': -71.408753, 'PloverID': '1968', 'PrjCode': '2809-LS', 'Muni': 'PROVIDENCE', 'NAD83_Lat': 41.839503, 'FacID': '811', 'Addrs': '691 NORTH MAIN STREET', 'Status': 'I'}, 'type': 'Feature', 'geometry': {'type': 'Point', 'coordinates': (352948.17383658886, 275543.6508723423)}}, {'properties': {'RISPF_X': 354913.6, 'RISPF_Y': 279828.5, 'Name': 'MIRIAM HOSPITAL - 2', 'XY_Source': 'E911', 'Date_': '19910726', 'NAD83_Lon': -71.401522, 'PloverID': '5878', 'PrjCode': '2826-LS', 'Muni': 'PROVIDENCE', 'NAD83_Lat': 41.851256, 'FacID': '16096', 'Addrs': '14 THIRD STREET', 'Status': 'I'}, 'type': 'Feature', 'geometry': {'type': 'Point', 'coordinates': (354913.5622942522, 279828.47432367504)}}, {'properties': {'RISPF_X': 357676.5, 'RISPF_Y': 281918.3, 'Name': 'EAST SIDE SERVICE STATION', 'XY_Source': 'E911', 'Date_': '19940319', 'NAD83_Lon': -71.391372, 'PloverID': '1723', 'PrjCode': '2871-LS', 'Muni': 'PROVIDENCE', 'NAD83_Lat': 41.856982, 'FacID': '1390', 'Addrs': '1100 HOPE STREET', 'Status': 'I'}, 'type': 'Feature', 'geometry': {'type': 'Point', 'coordinates': (357676.50632762024, 281918.3263819544)}}, {'properties': {'RISPF_X': 355822.7, 'RISPF_Y': 283237.2, 'Name': 'CENTRAL PAPER', 'XY_Source': 'E911', 'Date_': '19910826', 'NAD83_Lon': -71.39817, 'PloverID': '5882', 'PrjCode': '2610-LS', 'Muni': 'PAWTUCKET', 'NAD83_Lat': 41.860607, 'FacID': '16103', 'Addrs': '400 GLENNWOOD AVENUE', 'Status': 'I'}, 'type': 'Feature', 'geometry': {'type': 'Point', 'coordinates': (355822.75, 283237.1875)}}, {'properties': {'RISPF_X': 358598.7, 'RISPF_Y': 288058.8, 'Name': 'SUNOCO STATION', 'XY_Source': 'E911', 'Date_': '19891101', 'NAD83_Lon': -71.387957, 'PloverID': '1995', 'PrjCode': '2605-LS', 'Muni': 'PAWTUCKET', 'NAD83_Lat': 41.873829, 'FacID': '620', 'Addrs': '35 CEDAR STREET', 'Status': 'A'}, 'type': 'Feature', 'geometry': {'type': 'Point', 'coordinates': (358598.70682683587, 288058.79283676296)}}, {'properties': {'RISPF_X': 345214.6, 'RISPF_Y': 269566.7, 'Name': 'GENERAL ELECTRIC', 'XY_Source': 'E911', 'Date_': '19911101', 'NAD83_Lon': -71.437149, 'PloverID': '2994', 'PrjCode': '2830-LS', 'Muni': 'PROVIDENCE', 'NAD83_Lat': 41.82312, 'FacID': '1133', 'Addrs': '586 ATWELLS AVENUE', 'Status': 'A'}, 'type': 'Feature', 'geometry': {'type': 'Point', 'coordinates': (345214.5625, 269566.71875)}}, {'properties': {'RISPF_X': 336563.1, 'RISPF_Y': 265534.9, 'Name': 'PROVIDENCE WATER SUPPLY', 'XY_Source': 'E911', 'Date_': '19940423', 'NAD83_Lon': -71.468895, 'PloverID': '3430', 'PrjCode': '1613-LS', 'Muni': 'JOHNSTON', 'NAD83_Lat': 41.812069, 'FacID': '1701', 'Addrs': 'ASHBY STREET', 'Status': 'I'}, 'type': 'Feature', 'geometry': {'type': 'Point', 'coordinates': (336563.0625, 265534.9375)}}, {'properties': {'RISPF_X': 364889.7, 'RISPF_Y': 286652.2, 'Name': 'RI TEXTILE', 'XY_Source': 'E911', 'Date_': '19900701', 'NAD83_Lon': -71.364867, 'PloverID': '\\x00\\x00\\x00\\x00\\x00\\x00\\x00\\x00', 'PrjCode': '2606-LS', 'Muni': 'PAWTUCKET', 'NAD83_Lat': 41.869944, 'FacID': b'                                                                                                                                                                                                                                                              ', 'Addrs': '400 YORK AVENUE', 'Status': 'I'}, 'type': 'Feature', 'geometry': {'type': 'Point', 'coordinates': (364889.6580538222, 286652.18603744154)}}, {'properties': {'RISPF_X': 363173.5, 'RISPF_Y': 285412.2, 'Name': 'HARMONY MILLS', 'XY_Source': 'E911', 'Date_': '19940409', 'NAD83_Lon': -71.371174, 'PloverID': '6159', 'PrjCode': '2625-ST', 'Muni': 'PAWTUCKET', 'NAD83_Lat': 41.866549, 'FacID': '16688', 'Addrs': '10 DUNNELL LANE', 'Status': 'I'}, 'type': 'Feature', 'geometry': {'type': 'Point', 'coordinates': (363173.4848437246, 285412.1982686327)}}, {'properties': {'RISPF_X': 367607.8, 'RISPF_Y': 279008.8, 'Name': 'MCCABE MOBIL', 'XY_Source': 'E911', 'Date_': '19890701', 'NAD83_Lon': -71.354935, 'PloverID': '1940', 'PrjCode': '1009-LS', 'Muni': 'EAST PROVIDENCE', 'NAD83_Lat': 41.848957, 'FacID': '1506', 'Addrs': '440 PAWTUCKET AVENUE', 'Status': 'I'}, 'type': 'Feature', 'geometry': {'type': 'Point', 'coordinates': (367607.78125, 279008.8125)}}, {'properties': {'RISPF_X': 364002.7, 'RISPF_Y': 268969.7, 'Name': 'NEW ENGLAND TELEPHONE', 'XY_Source': 'E911', 'Date_': '19930105', 'NAD83_Lon': -71.368223, 'PloverID': '3034', 'PrjCode': '1025-LS', 'Muni': 'EAST PROVIDENCE', 'NAD83_Lat': 41.821423, 'FacID': '1192', 'Addrs': '289 NORTH BROADWAY', 'Status': 'I'}, 'type': 'Feature', 'geometry': {'type': 'Point', 'coordinates': (364002.6861763373, 268969.72734043)}}, {'properties': {'RISPF_X': 369364.4, 'RISPF_Y': 261708.7, 'Name': 'NEW ENGLAND TELEPHONE', 'XY_Source': 'E911', 'Date_': '19921022', 'NAD83_Lon': -71.348599, 'PloverID': '3061', 'PrjCode': '1029-LS', 'Muni': 'EAST PROVIDENCE', 'NAD83_Lat': 41.801473, 'FacID': '1220', 'Addrs': '175 AMARAL STREET', 'Status': 'I'}, 'type': 'Feature', 'geometry': {'type': 'Point', 'coordinates': (369364.38148967177, 261708.73136375844)}}, {'properties': {'RISPF_X': 365142.3, 'RISPF_Y': 260073.0, 'Name': 'P.J. SUPER SERVE', 'XY_Source': 'E911', 'Date_': '19931029', 'NAD83_Lon': -71.364094, 'PloverID': '1746', 'PrjCode': '1026-LS', 'Muni': 'EAST PROVIDENCE', 'NAD83_Lat': 41.797004, 'FacID': '3254', 'Addrs': '2851 PAWTUCKET AVE.', 'Status': 'I'}, 'type': 'Feature', 'geometry': {'type': 'Point', 'coordinates': (365142.2632935047, 260072.96757492423)}}, {'properties': {'RISPF_X': 368387.2, 'RISPF_Y': 251376.4, 'Name': 'NEW ENGLAND TELEPHONE', 'XY_Source': 'E911', 'Date_': '19921125', 'NAD83_Lon': -71.352248, 'PloverID': '3035', 'PrjCode': '1030-LS', 'Muni': 'EAST PROVIDENCE', 'NAD83_Lat': 41.773124, 'FacID': '1193', 'Addrs': 'SOMERSET AVENUE', 'Status': 'I'}, 'type': 'Feature', 'geometry': {'type': 'Point', 'coordinates': (368387.1767511703, 251376.43936434388)}}, {'properties': {'RISPF_X': 369863.2, 'RISPF_Y': 246533.9, 'Name': 'XTRA MART', 'XY_Source': 'E911', 'Date_': '19930413', 'NAD83_Lon': -71.346869, 'PloverID': '1934', 'PrjCode': '1006-LS', 'Muni': 'EAST PROVIDENCE', 'NAD83_Lat': 41.759827, 'FacID': '610', 'Addrs': '970 WILLET AVENUE', 'Status': 'SRO'}, 'type': 'Feature', 'geometry': {'type': 'Point', 'coordinates': (369863.24368092045, 246533.8870415911)}}, {'properties': {'RISPF_X': 381472.8, 'RISPF_Y': 243265.2, 'Name': 'HAMPTON  MEADOWS', 'XY_Source': 'E911', 'Date_': '19920520', 'NAD83_Lon': -71.304345, 'PloverID': '2306', 'PrjCode': '0107-LS', 'Muni': 'BARRINGTON', 'NAD83_Lat': 41.750793, 'FacID': '134', 'Addrs': '235 NEW MEADOWS RD.', 'Status': 'I'}, 'type': 'Feature', 'geometry': {'type': 'Point', 'coordinates': (381472.76836208627, 243265.18163675815)}}, {'properties': {'RISPF_X': 250497.0, 'RISPF_Y': 224793.1, 'Name': 'LAVOIE, ROLAND', 'XY_Source': 'E911', 'Date_': '19900301', 'NAD83_Lon': -71.784104, 'PloverID': '5756', 'PrjCode': '0603-LS', 'Muni': 'COVENTRY', 'NAD83_Lat': 41.699915, 'FacID': '15856', 'Addrs': '2266 PLAINFIELD PIKE', 'Status': 'I'}, 'type': 'Feature', 'geometry': {'type': 'Point', 'coordinates': (250497.04803058878, 224793.0637254268)}}, {'properties': {'RISPF_X': 276429.8, 'RISPF_Y': 223301.8, 'Name': 'WESTERN COVENTRY FIRE STATION', 'XY_Source': 'E911', 'Date_': '19950106', 'NAD83_Lon': -71.689132, 'PloverID': '4431', 'PrjCode': '0616-LS', 'Muni': 'COVENTRY', 'NAD83_Lat': 41.696018, 'FacID': '2876', 'Addrs': '466 FLAT RIVER ROAD', 'Status': 'I'}, 'type': 'Feature', 'geometry': {'type': 'Point', 'coordinates': (276429.84696827945, 223301.82209229277)}}, {'properties': {'RISPF_X': 309607.0, 'RISPF_Y': 217637.1, 'Name': 'SHELL STATION', 'XY_Source': 'E911', 'Date_': '19890405', 'NAD83_Lon': -71.567636, 'PloverID': '1822', 'PrjCode': '0602-LS', 'Muni': 'COVENTRY', 'NAD83_Lat': 41.680608, 'FacID': '786', 'Addrs': '866 TIOGUE AVENUE', 'Status': 'A'}, 'type': 'Feature', 'geometry': {'type': 'Point', 'coordinates': (309606.98952175304, 217637.05244692415)}}, {'properties': {'RISPF_X': 308924.3, 'RISPF_Y': 217027.9, 'Name': 'STOP & SHOP', 'XY_Source': 'E911', 'Date_': '19910626', 'NAD83_Lon': -71.570134, 'PloverID': '6003', 'PrjCode': '0604-LS', 'Muni': 'COVENTRY', 'NAD83_Lat': 41.678935, 'FacID': '16359', 'Addrs': '898-910 TIOGUE AVENUE', 'Status': 'I'}, 'type': 'Feature', 'geometry': {'type': 'Point', 'coordinates': (308924.26352500543, 217027.9401480928)}}, {'properties': {'RISPF_X': 309774.9, 'RISPF_Y': 221009.9, 'Name': 'GARLAND INDUSTRIES', 'XY_Source': 'E911', 'Date_': '19930430', 'NAD83_Lon': -71.567031, 'PloverID': '250', 'PrjCode': '0609-ST', 'Muni': 'COVENTRY', 'NAD83_Lat': 41.689864, 'FacID': '16480', 'Addrs': 'ONE SOUTH MAIN STREET', 'Status': 'I'}, 'type': 'Feature', 'geometry': {'type': 'Point', 'coordinates': (309774.9347239211, 221009.86033384502)}}, {'properties': {'RISPF_X': 317771.3, 'RISPF_Y': 233349.6, 'Name': 'HOLIDAY PRODUCTS', 'XY_Source': 'E911', 'Date_': '19930610', 'NAD83_Lon': -71.537774, 'PloverID': '6051', 'PrjCode': '0610-LS', 'Muni': 'COVENTRY', 'NAD83_Lat': 41.723742, 'FacID': '16471', 'Addrs': '9 HOWARD AVENUE', 'Status': 'I'}, 'type': 'Feature', 'geometry': {'type': 'Point', 'coordinates': (317771.2691249214, 233349.60894826055)}}, {'properties': {'RISPF_X': 316315.0, 'RISPF_Y': 234035.4, 'Name': 'MUNROE TOOL', 'XY_Source': 'E911', 'Date_': '19930615', 'NAD83_Lon': -71.54311, 'PloverID': '7266', 'PrjCode': '0611-ST', 'Muni': 'COVENTRY', 'NAD83_Lat': 41.725622, 'FacID': '18870', 'Addrs': '134 HOWARD AVE.', 'Status': 'I'}, 'type': 'Feature', 'geometry': {'type': 'Point', 'coordinates': (316314.9977592528, 234035.37266859412)}}, {'properties': {'RISPF_X': 318906.1, 'RISPF_Y': 232867.9, 'Name': 'NEW ENGLAND TELEPHONE', 'XY_Source': 'TOPO', 'Date_': '19921101', 'NAD83_Lon': -71.533617, 'PloverID': '3057', 'PrjCode': '3713-LS', 'Muni': 'WEST WARWICK', 'NAD83_Lat': 41.722421, 'FacID': '1216', 'Addrs': 'MAIN STREET', 'Status': 'I'}, 'type': 'Feature', 'geometry': {'type': 'Point', 'coordinates': (318906.0828328599, 232867.9127779247)}}, {'properties': {'RISPF_X': 318822.0, 'RISPF_Y': 232834.6, 'Name': \"PHENIX'S SPORTSMAN\", 'XY_Source': 'E911', 'Date_': '19921102', 'NAD83_Lon': -71.533925, 'PloverID': '6266', 'PrjCode': '3712-ST', 'Muni': 'WEST WARWICK', 'NAD83_Lat': 41.72233, 'FacID': '16890', 'Addrs': '707 MAIN STREET', 'Status': 'I'}, 'type': 'Feature', 'geometry': {'type': 'Point', 'coordinates': (318821.9760130048, 232834.63589684665)}}, {'properties': {'RISPF_X': 327408.2, 'RISPF_Y': 223271.5, 'Name': 'CUMBERLAND FARMS/ GULF', 'XY_Source': 'E911', 'Date_': '19941201', 'NAD83_Lon': -71.502472, 'PloverID': '1626', 'PrjCode': '3723-LS', 'Muni': 'WEST WARWICK', 'NAD83_Lat': 41.696091, 'FacID': '1057', 'Addrs': '295 LEGRIS AVENUE', 'Status': 'I'}, 'type': 'Feature', 'geometry': {'type': 'Point', 'coordinates': (327408.21875, 223271.53125)}}, {'properties': {'RISPF_X': 330876.6, 'RISPF_Y': 228422.8, 'Name': 'MOBIL STATION', 'XY_Source': 'E911', 'Date_': '19931004', 'NAD83_Lon': -71.48977, 'PloverID': '1559', 'PrjCode': '3718-LS', 'Muni': 'WEST WARWICK', 'NAD83_Lat': 41.710227, 'FacID': '1526', 'Addrs': '1050 BALD HILL ROAD', 'Status': 'SRO'}, 'type': 'Feature', 'geometry': {'type': 'Point', 'coordinates': (330876.592323672, 228422.7703767568)}}, {'properties': {'RISPF_X': 326399.3, 'RISPF_Y': 219338.3, 'Name': 'SHELL STATION', 'XY_Source': 'E911', 'Date_': '19901019', 'NAD83_Lon': -71.506165, 'PloverID': '1815', 'PrjCode': '3706-LS', 'Muni': 'WEST WARWICK', 'NAD83_Lat': 41.685297, 'FacID': '817', 'Addrs': '280 COWESETT AVE.', 'Status': 'A'}, 'type': 'Feature', 'geometry': {'type': 'Point', 'coordinates': (326399.3171575032, 219338.28526492417)}}, {'properties': {'RISPF_X': 338764.2, 'RISPF_Y': 198348.5, 'Name': 'QUIDNESSET MOBIL', 'XY_Source': 'E911', 'Date_': '19890718', 'NAD83_Lon': -71.460933, 'PloverID': '3289', 'PrjCode': '2305-LS', 'Muni': 'NORTH KINGSTOWN', 'NAD83_Lat': 41.627687, 'FacID': '1515', 'Addrs': '6228 POST AND ESSEX ROAD', 'Status': 'I'}, 'type': 'Feature', 'geometry': {'type': 'Point', 'coordinates': (338764.226220402, 198348.4864670708)}}, {'properties': {'RISPF_X': 322204.7, 'RISPF_Y': 196045.6, 'Name': 'EAST GREENWICH PUBLIC WORKS', 'XY_Source': 'E911', 'Date_': '19921201', 'NAD83_Lon': -71.5215, 'PloverID': '2299', 'PrjCode': '0905-LS', 'Muni': 'EAST GREENWICH', 'NAD83_Lat': 41.621372, 'FacID': '124', 'Addrs': 'BEAR SWAMP ROAD', 'Status': 'SRO'}, 'type': 'Feature', 'geometry': {'type': 'Point', 'coordinates': (322204.72941808775, 196045.57397642732)}}, {'properties': {'RISPF_X': 341126.7, 'RISPF_Y': 210781.8, 'Name': 'NEW ENGLAND TELEPHONE', 'XY_Source': 'E911', 'Date_': '19940423', 'NAD83_Lon': -71.452266, 'PloverID': '3036', 'PrjCode': '0907-LS', 'Muni': 'EAST GREENWICH', 'NAD83_Lat': 41.661805, 'FacID': '1194', 'Addrs': 'CHURCH STREET', 'Status': 'I'}, 'type': 'Feature', 'geometry': {'type': 'Point', 'coordinates': (341126.66828016937, 210781.80369026214)}}, {'properties': {'RISPF_X': 342835.7, 'RISPF_Y': 209742.7, 'Name': 'GREENWICH BAY CLAM, INC.', 'XY_Source': 'E911', 'Date_': '19940702', 'NAD83_Lon': -71.446014, 'PloverID': '2426', 'PrjCode': '0909-LS', 'Muni': 'EAST GREENWICH', 'NAD83_Lat': 41.658951, 'FacID': '277', 'Addrs': 'WATER STREET', 'Status': 'I'}, 'type': 'Feature', 'geometry': {'type': 'Point', 'coordinates': (342835.6875, 209742.734375)}}, {'properties': {'RISPF_X': 340528.8, 'RISPF_Y': 219642.6, 'Name': \"CALLAGHAN'S MOBIL\", 'XY_Source': 'E911', 'Date_': '19870601', 'NAD83_Lon': -71.454437, 'PloverID': '3878', 'PrjCode': '3518-LS', 'Muni': 'WARWICK', 'NAD83_Lat': 41.686123, 'FacID': '2264', 'Addrs': '3815 POST ROAD', 'Status': 'I'}, 'type': 'Feature', 'geometry': {'type': 'Point', 'coordinates': (340528.78125, 219642.640625)}}, {'properties': {'RISPF_X': 339590.0, 'RISPF_Y': 225669.4, 'Name': 'MOBIL STATION SS#01', 'XY_Source': 'E911', 'Date_': '19900207', 'NAD83_Lon': -71.457863, 'PloverID': '1859', 'PrjCode': '3514-LS', 'Muni': 'WARWICK', 'NAD83_Lat': 41.702664, 'FacID': '1574', 'Addrs': \"91 VETERAN'S MEMORIAL DRIVE\", 'Status': 'I'}, 'type': 'Feature', 'geometry': {'type': 'Point', 'coordinates': (339590.036510922, 225669.42352125794)}}, {'properties': {'RISPF_X': 330736.0, 'RISPF_Y': 228057.4, 'Name': 'EXXON STATION (FORMER)', 'XY_Source': 'E911', 'Date_': '19940702', 'NAD83_Lon': -71.490285, 'PloverID': '3093', 'PrjCode': '3535-LS', 'Muni': 'WARWICK', 'NAD83_Lat': 41.709224, 'FacID': '1260', 'Addrs': '1074 BALD HILL ROAD', 'Status': 'I'}, 'type': 'Feature', 'geometry': {'type': 'Point', 'coordinates': (330735.99713242054, 228057.40890275687)}}, {'properties': {'RISPF_X': 328192.1, 'RISPF_Y': 229205.8, 'Name': 'PRECISION AUTO', 'XY_Source': 'E911', 'Date_': '19921201', 'NAD83_Lon': -71.499602, 'PloverID': '6011', 'PrjCode': '3714-LS', 'Muni': 'WEST WARWICK', 'NAD83_Lat': 41.712376, 'FacID': '16382', 'Addrs': '442 PROVIDENCE STREET', 'Status': 'SRO'}, 'type': 'Feature', 'geometry': {'type': 'Point', 'coordinates': (328192.1324695051, 229205.81638284028)}}, {'properties': {'RISPF_X': 345595.4, 'RISPF_Y': 236680.1, 'Name': 'MOBIL SS#01', 'XY_Source': 'E911', 'Date_': '19890710', 'NAD83_Lon': -71.435842, 'PloverID': '1851', 'PrjCode': '3508-LS', 'Muni': 'WARWICK', 'NAD83_Lat': 41.73287, 'FacID': '1521', 'Addrs': '1776 POST RD.', 'Status': 'I'}, 'type': 'Feature', 'geometry': {'type': 'Point', 'coordinates': (345595.4431352541, 236680.1229565069)}}, {'properties': {'RISPF_X': 349005.6, 'RISPF_Y': 242403.1, 'Name': 'AUTO MALL', 'XY_Source': 'E911', 'Date_': '19900920', 'NAD83_Lon': -71.423329, 'PloverID': '\\x00\\x00\\x00\\x00\\x00\\x00\\x00\\x00', 'PrjCode': '3516-LS', 'Muni': 'WARWICK', 'NAD83_Lat': 41.748568, 'FacID': b'                                                                                                                                                                                                                                                              ', 'Addrs': '1101 POST ROAD', 'Status': 'I'}, 'type': 'Feature', 'geometry': {'type': 'Point', 'coordinates': (349005.63414950296, 242403.10888583958)}}, {'properties': {'RISPF_X': 344724.0, 'RISPF_Y': 234560.7, 'Name': 'EXXON STATION', 'XY_Source': 'E911', 'Date_': '19930101', 'NAD83_Lon': -71.43904, 'PloverID': '1538', 'PrjCode': '3523-LS', 'Muni': 'WARWICK', 'NAD83_Lat': 41.727055, 'FacID': '3120', 'Addrs': '2003 POST ROAD', 'Status': 'I'}, 'type': 'Feature', 'geometry': {'type': 'Point', 'coordinates': (344723.96751600504, 234560.67837651074)}}, {'properties': {'RISPF_X': 354346.3, 'RISPF_Y': 231940.6, 'Name': 'MOBIL STATION', 'XY_Source': 'TOPO', 'Date_': '19890712', 'NAD83_Lon': -71.403801, 'PloverID': '3333', 'PrjCode': '3505-LS', 'Muni': 'WARWICK', 'NAD83_Lat': 41.719841, 'FacID': '1573', 'Addrs': '2065 WARWICK AVENUE', 'Status': 'I'}, 'type': 'Feature', 'geometry': {'type': 'Point', 'coordinates': (354346.34375, 231940.609375)}}, {'properties': {'RISPF_X': 344027.3, 'RISPF_Y': 224782.3, 'Name': 'EXXON STATION', 'XY_Source': 'E911', 'Date_': '19890123', 'NAD83_Lon': -71.441616, 'PloverID': '1534', 'PrjCode': '3506-LS', 'Muni': 'WARWICK', 'NAD83_Lat': 41.700222, 'FacID': '1261', 'Addrs': '3344 WEST SHORE ROAD', 'Status': 'I'}, 'type': 'Feature', 'geometry': {'type': 'Point', 'coordinates': (344027.29863375425, 224782.28750026226)}}, {'properties': {'RISPF_X': 347167.4, 'RISPF_Y': 220020.6, 'Name': 'CAPRON FARM ROAD FACILITY', 'XY_Source': 'E911', 'Date_': '19930430', 'NAD83_Lon': -71.430132, 'PloverID': '6035', 'PrjCode': '3525-LS', 'Muni': 'WARWICK', 'NAD83_Lat': 41.687148, 'FacID': '16439', 'Addrs': '339 CAPRON FARM ROAD', 'Status': 'I'}, 'type': 'Feature', 'geometry': {'type': 'Point', 'coordinates': (347167.38848217204, 220020.6103438437)}}, {'properties': {'RISPF_X': 381512.0, 'RISPF_Y': 238071.0, 'Name': 'BARRINGTON MOBIL', 'XY_Source': 'TOPO', 'Date_': '19900713', 'NAD83_Lon': -71.304245, 'PloverID': '3287', 'PrjCode': '0103-LS', 'Muni': 'BARRINGTON', 'NAD83_Lat': 41.736538, 'FacID': '1507', 'Addrs': '170 COUNTY ROAD', 'Status': 'I'}, 'type': 'Feature', 'geometry': {'type': 'Point', 'coordinates': (381511.96875, 238070.953125)}}, {'properties': {'RISPF_X': 384731.3, 'RISPF_Y': 237206.9, 'Name': 'BARRINGTON YACHT CLUB', 'XY_Source': 'E911', 'Date_': '19920603', 'NAD83_Lon': -71.292458, 'PloverID': '3366', 'PrjCode': '0108-LS', 'Muni': 'BARRINGTON', 'NAD83_Lat': 41.734146, 'FacID': '1619', 'Addrs': '32 BARTON STREET', 'Status': 'I'}, 'type': 'Feature', 'geometry': {'type': 'Point', 'coordinates': (384731.28125, 237206.921875)}}, {'properties': {'RISPF_X': 386665.7, 'RISPF_Y': 234751.3, 'Name': 'BLOUNT SEAFOOD', 'XY_Source': 'E911', 'Date_': '19920306', 'NAD83_Lon': -71.285393, 'PloverID': '2507', 'PrjCode': '3409-LS', 'Muni': 'WARREN', 'NAD83_Lat': 41.727394, 'FacID': '392', 'Addrs': '383 WATER STREET', 'Status': 'I'}, 'type': 'Feature', 'geometry': {'type': 'Point', 'coordinates': (386665.75, 234751.265625)}}, {'properties': {'RISPF_X': 391348.1, 'RISPF_Y': 235493.2, 'Name': \"TIM'S AUTO\", 'XY_Source': 'E911', 'Date_': '19930517', 'NAD83_Lon': -71.268233, 'PloverID': '6040', 'PrjCode': '3414-LS', 'Muni': 'WARREN', 'NAD83_Lat': 41.729397, 'FacID': '16447', 'Addrs': '404 CHILD STREET', 'Status': 'I'}, 'type': 'Feature', 'geometry': {'type': 'Point', 'coordinates': (391348.09605233744, 235493.17585534602)}}, {'properties': {'RISPF_X': 391807.5, 'RISPF_Y': 235342.5, 'Name': \"BENTO'S VARIETY STORE\", 'XY_Source': 'E911', 'Date_': '19890208', 'NAD83_Lon': -71.266551, 'PloverID': '4466', 'PrjCode': '3404-LS', 'Muni': 'WARREN', 'NAD83_Lat': 41.72898, 'FacID': '2918', 'Addrs': '435 CHILD STREET', 'Status': 'SRO'}, 'type': 'Feature', 'geometry': {'type': 'Point', 'coordinates': (391807.4711178355, 235342.48127484322)}}, {'properties': {'RISPF_X': 387714.6, 'RISPF_Y': 233391.1, 'Name': 'DAIRY MART', 'XY_Source': 'E911', 'Date_': '19921125', 'NAD83_Lon': -71.281563, 'PloverID': '2493', 'PrjCode': '3413-LS', 'Muni': 'WARREN', 'NAD83_Lat': 41.723654, 'FacID': '375', 'Addrs': '737 SOUTH MAIN STREET', 'Status': 'A'}, 'type': 'Feature', 'geometry': {'type': 'Point', 'coordinates': (387714.64552964334, 233391.14717879545)}}, {'properties': {'RISPF_X': 390995.2, 'RISPF_Y': 232633.3, 'Name': 'SHELL STATION', 'XY_Source': 'E911', 'Date_': '19890301', 'NAD83_Lon': -71.269553, 'PloverID': '2057', 'PrjCode': '3405-LS', 'Muni': 'WARREN', 'NAD83_Lat': 41.721551, 'FacID': '814', 'Addrs': '585 METACOM AVE.', 'Status': 'A'}, 'type': 'Feature', 'geometry': {'type': 'Point', 'coordinates': (390995.1878859578, 232633.2823412561)}}, {'properties': {'RISPF_X': 389397.0, 'RISPF_Y': 222509.6, 'Name': 'BRISTOL/WARREN GAS', 'XY_Source': 'E911', 'Date_': '19880428', 'NAD83_Lon': -71.275504, 'PloverID': '4357', 'PrjCode': '0203-LS', 'Muni': 'BRISTOL', 'NAD83_Lat': 41.69378, 'FacID': '2798', 'Addrs': '25 GOODING AVENUE', 'Status': 'I'}, 'type': 'Feature', 'geometry': {'type': 'Point', 'coordinates': (389396.9713456705, 222509.5505759269)}}, {'properties': {'RISPF_X': 392555.7, 'RISPF_Y': 222556.9, 'Name': 'BRISTOL SHELL', 'XY_Source': 'E911', 'Date_': '19880229', 'NAD83_Lon': -71.263938, 'PloverID': '1580', 'PrjCode': '0202-LS', 'Muni': 'BRISTOL', 'NAD83_Lat': 41.693887, 'FacID': '920', 'Addrs': '579 METACOM AVENUE', 'Status': 'A'}, 'type': 'Feature', 'geometry': {'type': 'Point', 'coordinates': (392555.72126175463, 222556.8939851746)}}, {'properties': {'RISPF_X': 388555.7, 'RISPF_Y': 220156.9, 'Name': 'SUNOCO STATION', 'XY_Source': 'E911', 'Date_': '19880914', 'NAD83_Lon': -71.278607, 'PloverID': '1581', 'PrjCode': '0204-LS', 'Muni': 'BRISTOL', 'NAD83_Lat': 41.68733, 'FacID': '785', 'Addrs': '1064 HOPE STREET', 'Status': 'I'}, 'type': 'Feature', 'geometry': {'type': 'Point', 'coordinates': (388555.7213877551, 220156.89386392385)}}, {'properties': {'RISPF_X': 393982.0, 'RISPF_Y': 214262.9, 'Name': 'FRANCO BROS.', 'XY_Source': 'E911', 'Date_': '19920716', 'NAD83_Lon': -71.258801, 'PloverID': '6017', 'PrjCode': '0209-LS', 'Muni': 'BRISTOL', 'NAD83_Lat': 41.671115, 'FacID': '16398', 'Addrs': '301 METACOM AVENUE', 'Status': 'I'}, 'type': 'Feature', 'geometry': {'type': 'Point', 'coordinates': (393982.01434092224, 214262.87284359336)}}, {'properties': {'RISPF_X': 271402.1, 'RISPF_Y': 158152.2, 'Name': 'RI DOT GARAGE', 'XY_Source': 'E911', 'Date_': '19920101', 'NAD83_Lon': -71.706969, 'PloverID': '3105', 'PrjCode': '1406-LS', 'Muni': 'HOPKINTON', 'NAD83_Lat': 41.517194, 'FacID': '1280', 'Addrs': '51 BANK STREET', 'Status': 'I'}, 'type': 'Feature', 'geometry': {'type': 'Point', 'coordinates': (271402.0885695033, 158152.16747992486)}}, {'properties': {'RISPF_X': 323753.9, 'RISPF_Y': 179739.0, 'Name': \"OATLEY'S\", 'XY_Source': 'E911', 'Date_': '19910108', 'NAD83_Lon': -71.515823, 'PloverID': '4427', 'PrjCode': '2306-LS', 'Muni': 'NORTH KINGSTOWN', 'NAD83_Lat': 41.576622, 'FacID': '2871', 'Addrs': 'ROUTE 102', 'Status': 'SRO'}, 'type': 'Feature', 'geometry': {'type': 'Point', 'coordinates': (323753.875, 179739.015625)}}, {'properties': {'RISPF_X': 336776.3, 'RISPF_Y': 172359.3, 'Name': 'TOWN OF NORTH KINGSTOWN-DPW GARAGE', 'XY_Source': 'E911', 'Date_': '19891219', 'NAD83_Lon': -71.468239, 'PloverID': '2840', 'PrjCode': '2308-LS', 'Muni': 'NORTH KINGSTOWN', 'NAD83_Lat': 41.556366, 'FacID': '928', 'Addrs': '55 OAK HILL ROAD', 'Status': 'I'}, 'type': 'Feature', 'geometry': {'type': 'Point', 'coordinates': (336776.28125, 172359.265625)}}, {'properties': {'RISPF_X': 348989.3, 'RISPF_Y': 184782.5, 'Name': 'QUONSET PIPELINE', 'XY_Source': 'TOPO', 'Date_': '19911111', 'NAD83_Lon': -71.423576, 'PloverID': '\\x00\\x00\\x00\\x00\\x00\\x00\\x00\\x00', 'PrjCode': '2311-LS', 'Muni': 'NORTH KINGSTOWN', 'NAD83_Lat': 41.590439, 'FacID': b'                                                                                                                                                                                                                                                              ', 'Addrs': 'QUONSET POINT', 'Status': 'I'}, 'type': 'Feature', 'geometry': {'type': 'Point', 'coordinates': (348989.3125, 184782.515625)}}, {'properties': {'RISPF_X': 352339.7, 'RISPF_Y': 184115.7, 'Name': 'U S ARMY CORPS OF ENGINEERS', 'XY_Source': 'E911', 'Date_': '19920221', 'NAD83_Lon': -71.411331, 'PloverID': '2551', 'PrjCode': '2313-LS', 'Muni': 'NORTH KINGSTOWN', 'NAD83_Lat': 41.5886, 'FacID': '467', 'Addrs': 'ZARBO AVENUE', 'Status': 'I'}, 'type': 'Feature', 'geometry': {'type': 'Point', 'coordinates': (352339.71875, 184115.734375)}}, {'properties': {'RISPF_X': 352062.9, 'RISPF_Y': 185917.0, 'Name': 'QUONSET AIRPORT', 'XY_Source': 'E911', 'Date_': '19940224', 'NAD83_Lon': -71.412337, 'PloverID': '2551', 'PrjCode': '2322-LS', 'Muni': 'NORTH KINGSTOWN', 'NAD83_Lat': 41.593544, 'FacID': '467', 'Addrs': '240 AIRPORT ROAD', 'Status': 'I'}, 'type': 'Feature', 'geometry': {'type': 'Point', 'coordinates': (352062.8642555028, 185917.0387873426)}}, {'properties': {'RISPF_X': 346981.8, 'RISPF_Y': 185549.6, 'Name': 'KIEFER PARK', 'XY_Source': 'TOPO', 'Date_': '19890608', 'NAD83_Lon': -71.430913, 'PloverID': '3042', 'PrjCode': '2303-LS', 'Muni': 'NORTH KINGSTOWN', 'NAD83_Lat': 41.592549, 'FacID': '1200', 'Addrs': 'QUONSET POINT', 'Status': 'I'}, 'type': 'Feature', 'geometry': {'type': 'Point', 'coordinates': (346981.78442740854, 185549.6037053015)}}, {'properties': {'RISPF_X': 349766.4, 'RISPF_Y': 186240.0, 'Name': 'U S ARMY - FEDERAL RI PORT AUTHORITY', 'XY_Source': 'E911', 'Date_': '19901120', 'NAD83_Lon': -71.420731, 'PloverID': '3042', 'PrjCode': '2307-LS', 'Muni': 'NORTH KINGSTOWN', 'NAD83_Lat': 41.594437, 'FacID': '1200', 'Addrs': 'QUONSET POINT', 'Status': 'I'}, 'type': 'Feature', 'geometry': {'type': 'Point', 'coordinates': (349766.4375, 186239.953125)}}, {'properties': {'RISPF_X': 345424.0, 'RISPF_Y': 188470.1, 'Name': 'U S NAVY SEABEES', 'XY_Source': 'E911', 'Date_': '19920430', 'NAD83_Lon': -71.4366, 'PloverID': '\\x00\\x00\\x00\\x00\\x00\\x00\\x00\\x00', 'PrjCode': '2314-ST', 'Muni': 'NORTH KINGSTOWN', 'NAD83_Lat': 41.600567, 'FacID': '949', 'Addrs': 'DAVISVILLE BASE', 'Status': 'I'}, 'type': 'Feature', 'geometry': {'type': 'Point', 'coordinates': (345424.0, 188470.125)}}, {'properties': {'RISPF_X': 340092.9, 'RISPF_Y': 190664.2, 'Name': 'STAR TEXACO', 'XY_Source': 'PHOTO', 'Date_': '19930928', 'NAD83_Lon': -71.456087, 'PloverID': '\\x00\\x00\\x00\\x00\\x00\\x00\\x00\\x00', 'PrjCode': '2317-LS', 'Muni': 'NORTH KINGSTOWN', 'NAD83_Lat': 41.606597, 'FacID': '437', 'Addrs': 'RTE. 1A, SEABER BELL', 'Status': 'I'}, 'type': 'Feature', 'geometry': {'type': 'Point', 'coordinates': (340092.86391733587, 190664.15658967942)}}, {'properties': {'RISPF_X': 351312.7, 'RISPF_Y': 194849.8, 'Name': 'U S ARMY CORPS OF ENGINEERS', 'XY_Source': 'E911', 'Date_': '19930629', 'NAD83_Lon': -71.415047, 'PloverID': '3042', 'PrjCode': '2316-LS', 'Muni': 'NORTH KINGSTOWN', 'NAD83_Lat': 41.618061, 'FacID': '1200', 'Addrs': 'WEST DAVISVILLE & ALLEN HARBOR', 'Status': 'I'}, 'type': 'Feature', 'geometry': {'type': 'Point', 'coordinates': (351312.71875, 194849.828125)}}, {'properties': {'RISPF_X': 401880.8, 'RISPF_Y': 160429.3, 'Name': 'TONAMORA', 'XY_Source': 'E911', 'Date_': '19941122', 'NAD83_Lon': -71.230506, 'PloverID': '6291', 'PrjCode': '2710-LS', 'Muni': 'PORTSMOUTH', 'NAD83_Lat': 41.523314, 'FacID': '16939', 'Addrs': '299 INDIAN AVENUE', 'Status': 'SRO'}, 'type': 'Feature', 'geometry': {'type': 'Point', 'coordinates': (401880.80333333835, 160429.2925188467)}}, {'properties': {'RISPF_X': 416078.5, 'RISPF_Y': 154764.0, 'Name': \"EARL'S TEXACO\", 'XY_Source': 'E911', 'Date_': '19870618', 'NAD83_Lon': -71.178736, 'PloverID': '4225', 'PrjCode': '1701-LS', 'Muni': 'LITTLE COMPTON', 'NAD83_Lat': 41.507634, 'FacID': '2650', 'Addrs': 'MEETING HOUSE LANE', 'Status': 'A'}, 'type': 'Feature', 'geometry': {'type': 'Point', 'coordinates': (416078.5164076723, 154764.03580476344)}}, {'properties': {'RISPF_X': 376140.2, 'RISPF_Y': 184878.5, 'Name': 'U S ARMY CORPS OF ENGINEERS', 'XY_Source': 'TOPO', 'Date_': '19920131', 'NAD83_Lon': -71.324323, 'PloverID': '5407', 'PrjCode': '2706-LS', 'Muni': 'PORTSMOUTH', 'NAD83_Lat': 41.590593, 'FacID': '15229', 'Addrs': 'PRUDENCE ISLAND', 'Status': 'I'}, 'type': 'Feature', 'geometry': {'type': 'Point', 'coordinates': (376140.2339826476, 184878.49891931008)}}, {'properties': {'RISPF_X': 388370.8, 'RISPF_Y': 184476.3, 'Name': 'DEFENSE LOGISTIC TANK FARM 1', 'XY_Source': 'E911', 'Date_': '19940124', 'NAD83_Lon': -71.279617, 'PloverID': '2281', 'PrjCode': '2704-LS', 'Muni': 'PORTSMOUTH', 'NAD83_Lat': 41.589413, 'FacID': '95', 'Addrs': 'TANK FARM ONE', 'Status': 'I'}, 'type': 'Feature', 'geometry': {'type': 'Point', 'coordinates': (388370.84375, 184476.3125)}}, {'properties': {'RISPF_X': 398844.5, 'RISPF_Y': 170886.7, 'Name': 'SANDY POINT FARMS', 'XY_Source': 'TOPO', 'Date_': '19930602', 'NAD83_Lon': -71.24148, 'PloverID': '6084', 'PrjCode': '2708-LS', 'Muni': 'PORTSMOUTH', 'NAD83_Lat': 41.552038, 'FacID': '16524', 'Addrs': 'ADAMS ROAD', 'Status': 'I'}, 'type': 'Feature', 'geometry': {'type': 'Point', 'coordinates': (398844.5297803961, 170886.67312100402)}}, {'properties': {'RISPF_X': 383536.7, 'RISPF_Y': 161786.6, 'Name': 'GOODWILL CLEANERS', 'XY_Source': 'E911', 'Date_': '19890726', 'NAD83_Lon': -71.297483, 'PloverID': '5729', 'PrjCode': '1902-LS', 'Muni': 'MIDDLETOWN', 'NAD83_Lat': 41.527177, 'FacID': '15801', 'Addrs': '870 WEST MAIN ROAD', 'Status': 'I'}, 'type': 'Feature', 'geometry': {'type': 'Point', 'coordinates': (383536.73864358664, 161786.6408540085)}}, {'properties': {'RISPF_X': 389707.7, 'RISPF_Y': 161211.7, 'Name': 'EASTERN UTILITIES -NEWPORT ELECTRIC', 'XY_Source': 'E911', 'Date_': '19900601', 'NAD83_Lon': -71.274952, 'PloverID': '1867', 'PrjCode': '1905-LS', 'Muni': 'MIDDLETOWN', 'NAD83_Lat': 41.525557, 'FacID': '2185', 'Addrs': '12 TURNER ROAD', 'Status': 'I'}, 'type': 'Feature', 'geometry': {'type': 'Point', 'coordinates': (389707.6902124211, 161211.72336867452)}}, {'properties': {'RISPF_X': 377911.2, 'RISPF_Y': 154212.5, 'Name': 'SHELL STATION', 'XY_Source': 'E911', 'Date_': '19900418', 'NAD83_Lon': -71.318086, 'PloverID': '2754', 'PrjCode': '2211-LS', 'Muni': 'NEWPORT', 'NAD83_Lat': 41.506425, 'FacID': '803', 'Addrs': 'CONNELL HIGHWAY @ ADMIRAL KALBFUS', 'Status': 'A'}, 'type': 'Feature', 'geometry': {'type': 'Point', 'coordinates': (377911.2118327451, 154212.54192614378)}}, {'properties': {'RISPF_X': 378133.7, 'RISPF_Y': 154831.2, 'Name': 'MOBIL STATION', 'XY_Source': 'E911', 'Date_': '19890101', 'NAD83_Lon': -71.317268, 'PloverID': '1937', 'PrjCode': '2208-LS', 'Muni': 'NEWPORT', 'NAD83_Lat': 41.508121, 'FacID': '1511', 'Addrs': 'CONNELL HIGHWAY @ ROUTE 138', 'Status': 'I'}, 'type': 'Feature', 'geometry': {'type': 'Point', 'coordinates': (378133.71875, 154831.1875)}}, {'properties': {'RISPF_X': 377554.9, 'RISPF_Y': 153820.7, 'Name': 'SAFEWAY', 'XY_Source': 'E911', 'Date_': '19900828', 'NAD83_Lon': -71.319389, 'PloverID': '2252', 'PrjCode': '2213-LS', 'Muni': 'NEWPORT', 'NAD83_Lat': 41.505352, 'FacID': '59', 'Addrs': '215 THIRD STREET', 'Status': 'SRO'}, 'type': 'Feature', 'geometry': {'type': 'Point', 'coordinates': (377554.91596158594, 153820.6895943433)}}, {'properties': {'RISPF_X': 375453.3, 'RISPF_Y': 155559.6, 'Name': 'NETC BUILDING 55 CHI', 'XY_Source': 'E911', 'Date_': '19940817', 'NAD83_Lon': -71.327049, 'PloverID': '6237', 'PrjCode': '2232-LS', 'Muni': 'NEWPORT', 'NAD83_Lat': 41.510136, 'FacID': '16843', 'Addrs': 'COASTER HARBOR ISLAND', 'Status': 'I'}, 'type': 'Feature', 'geometry': {'type': 'Point', 'coordinates': (375453.28125, 155559.609375)}}, {'properties': {'RISPF_X': 375177.4, 'RISPF_Y': 155582.7, 'Name': \"COASTER'S ISLAND\", 'XY_Source': 'E911', 'Date_': '19930611', 'NAD83_Lon': -71.328056, 'PloverID': '2351', 'PrjCode': '2222-ST', 'Muni': 'NEWPORT', 'NAD83_Lat': 41.510201, 'FacID': '192', 'Addrs': 'BUILDING 74,NETC', 'Status': 'I'}, 'type': 'Feature', 'geometry': {'type': 'Point', 'coordinates': (375177.375, 155582.6875)}}, {'properties': {'RISPF_X': 363375.8, 'RISPF_Y': 150195.6, 'Name': 'NEWMAN, FREDERICK', 'XY_Source': 'E911', 'Date_': '19941101', 'NAD83_Lon': -71.371174, 'PloverID': '6282', 'PrjCode': '1501-LS', 'Muni': 'JAMESTOWN', 'NAD83_Lat': 41.495472, 'FacID': '16918', 'Addrs': '2 HAMMET COURT', 'Status': 'I'}, 'type': 'Feature', 'geometry': {'type': 'Point', 'coordinates': (363375.790776588, 150195.5528157577)}}, {'properties': {'RISPF_X': 381524.9, 'RISPF_Y': 169829.9, 'Name': 'TANK FARM 5', 'XY_Source': 'TOPO', 'Date_': '19931021', 'NAD83_Lon': -71.304764, 'PloverID': '2373', 'PrjCode': '2227-LS', 'Muni': 'NEWPORT', 'NAD83_Lat': 41.549263, 'FacID': '214', 'Addrs': 'NETC', 'Status': 'A'}, 'type': 'Feature', 'geometry': {'type': 'Point', 'coordinates': (381524.875, 169829.859375)}}, {'properties': {'RISPF_X': 250162.1, 'RISPF_Y': 124707.1, 'Name': 'ASHAWAY DB (TEXACO)', 'XY_Source': 'E911', 'Date_': '19900101', 'NAD83_Lon': -71.784125, 'PloverID': '2444', 'PrjCode': '1405-LS', 'Muni': 'HOPKINTON', 'NAD83_Lat': 41.425243, 'FacID': '309', 'Addrs': '216 MAIN STREET', 'Status': 'I'}, 'type': 'Feature', 'geometry': {'type': 'Point', 'coordinates': (250162.07625958696, 124707.10641742498)}}, {'properties': {'RISPF_X': 284095.4, 'RISPF_Y': 134887.8, 'Name': 'NEW ENGLAND TELEPHONE', 'XY_Source': 'E911', 'Date_': '19940514', 'NAD83_Lon': -71.660463, 'PloverID': '3030', 'PrjCode': '0508-LS', 'Muni': 'CHARLESTOWN', 'NAD83_Lat': 41.453422, 'FacID': '1188', 'Addrs': 'CAROLINA BACK ROAD', 'Status': 'I'}, 'type': 'Feature', 'geometry': {'type': 'Point', 'coordinates': (284095.35714617, 134887.79668592662)}}, {'properties': {'RISPF_X': 378396.8, 'RISPF_Y': 143535.5, 'Name': 'NEWPORT DPW (MICROSTRAINER)', 'XY_Source': 'E911', 'Date_': '19900119', 'NAD83_Lon': -71.316395, 'PloverID': '2257', 'PrjCode': '2210-LS', 'Muni': 'NEWPORT', 'NAD83_Lat': 41.47712, 'FacID': '65', 'Addrs': '10 WELLINGTON STREET', 'Status': 'SRO'}, 'type': 'Feature', 'geometry': {'type': 'Point', 'coordinates': (378396.8461155428, 143535.52777656034)}}, {'properties': {'RISPF_X': 379060.7, 'RISPF_Y': 144220.0, 'Name': 'SUNOCO STATION', 'XY_Source': 'E911', 'Date_': '19910801', 'NAD83_Lon': -71.313967, 'PloverID': '5895', 'PrjCode': '2219-LS', 'Muni': 'NEWPORT', 'NAD83_Lat': 41.478995, 'FacID': '16120', 'Addrs': '514 THAMES ST.', 'Status': 'I'}, 'type': 'Feature', 'geometry': {'type': 'Point', 'coordinates': (379060.68952483684, 144219.98208975792)}}, {'properties': {'RISPF_X': 356288.2, 'RISPF_Y': 135343.5, 'Name': 'BEAVERTAIL POINT COMMUNICATION CENTER', 'XY_Source': 'E911', 'Date_': '19941230', 'NAD83_Lon': -71.39711, 'PloverID': '6285', 'PrjCode': '1502-LS', 'Muni': 'JAMESTOWN', 'NAD83_Lat': 41.454739, 'FacID': '16922', 'Addrs': 'BEAVERTAIL ROAD', 'Status': 'SRO'}, 'type': 'Feature', 'geometry': {'type': 'Point', 'coordinates': (356288.15625, 135343.546875)}}, {'properties': {'RISPF_X': 340806.6, 'RISPF_Y': 121736.9, 'Name': 'J.O. OTT ESTATE', 'XY_Source': 'E911', 'Date_': '19941126', 'NAD83_Lon': -71.453613, 'PloverID': '6290', 'PrjCode': '2013-LS', 'Muni': 'NARRAGANSETT', 'NAD83_Lat': 41.417433, 'FacID': '16938', 'Addrs': '290 OCEAN ROAD', 'Status': 'SRO'}, 'type': 'Feature', 'geometry': {'type': 'Point', 'coordinates': (340806.6092090048, 121736.93978559226)}}, {'properties': {'RISPF_X': 333385.0, 'RISPF_Y': 126481.5, 'Name': 'NARRAGANSETT MOBIL', 'XY_Source': 'E911', 'Date_': '19890726', 'NAD83_Lon': -71.480667, 'PloverID': '1854', 'PrjCode': '2001-LS', 'Muni': 'NARRAGANSETT', 'NAD83_Lat': 41.430462, 'FacID': '1016', 'Addrs': '66 POINT JUDITH ROAD', 'Status': 'A'}, 'type': 'Feature', 'geometry': {'type': 'Point', 'coordinates': (333384.96875, 126481.5234375)}}, {'properties': {'RISPF_X': 337700.8, 'RISPF_Y': 126538.8, 'Name': 'NARRAGANSETT TOWN HALL', 'XY_Source': 'E911', 'Date_': '19920720', 'NAD83_Lon': -71.464929, 'PloverID': '5982', 'PrjCode': '2004-LS', 'Muni': 'NARRAGANSETT', 'NAD83_Lat': 41.430615, 'FacID': '16297', 'Addrs': '25 FIFTH STREET', 'Status': 'I'}, 'type': 'Feature', 'geometry': {'type': 'Point', 'coordinates': (337700.83326833695, 126538.83142851293)}}, {'properties': {'RISPF_X': 339126.7, 'RISPF_Y': 124785.6, 'Name': 'NARRAGANSETT KARATE STUDIO', 'XY_Source': 'E911', 'Date_': '19940409', 'NAD83_Lon': -71.459732, 'PloverID': '6160', 'PrjCode': '2009-LS', 'Muni': 'NARRAGANSETT', 'NAD83_Lat': 41.425802, 'FacID': '16689', 'Addrs': '148 BOON STREET', 'Status': 'I'}, 'type': 'Feature', 'geometry': {'type': 'Point', 'coordinates': (339126.6739205867, 124785.64956742525)}}, {'properties': {'RISPF_X': 304904.4, 'RISPF_Y': 336136.7, 'Name': 'TOP GAS CITGO STATION', 'XY_Source': 'E911', 'Date_': '19900401', 'NAD83_Lon': -71.585281, 'PloverID': '2817', 'PrjCode': '2510-LS', 'Muni': 'NORTH SMITHFIELD', 'NAD83_Lat': 42.005787, 'FacID': '883', 'Addrs': '900 VICTORY HIGHWAY', 'Status': 'I'}, 'type': 'Feature', 'geometry': {'type': 'Point', 'coordinates': (304904.4375, 336136.71875)}}, {'properties': {'RISPF_X': 305636.9, 'RISPF_Y': 336541.4, 'Name': 'SUNOCO STATION', 'XY_Source': 'E911', 'Date_': '19900101', 'NAD83_Lon': -71.582588, 'PloverID': '1989', 'PrjCode': '2507-LS', 'Muni': 'NORTH SMITHFIELD', 'NAD83_Lat': 42.006899, 'FacID': '633', 'Addrs': '1047 EDDIE DOWLING -146A', 'Status': 'I'}, 'type': 'Feature', 'geometry': {'type': 'Point', 'coordinates': (305636.8819764219, 336541.362210013)}}, {'properties': {'RISPF_X': 323046.2, 'RISPF_Y': 334126.8, 'Name': 'GLEN ARK MILLS', 'XY_Source': 'E911', 'Date_': '19891116', 'NAD83_Lon': -71.518532, 'PloverID': '5784', 'PrjCode': '3901-LS', 'Muni': 'WOONSOCKET', 'NAD83_Lat': 42.000302, 'FacID': '15918', 'Addrs': '108 SAYLES STREET', 'Status': 'SRO'}, 'type': 'Feature', 'geometry': {'type': 'Point', 'coordinates': (323046.1552286707, 334126.8253724277)}}, {'properties': {'RISPF_X': 327942.2, 'RISPF_Y': 335248.6, 'Name': 'PROCACIANTI GROUP', 'XY_Source': 'E911', 'Date_': '19910729', 'NAD83_Lon': -71.500519, 'PloverID': '5879', 'PrjCode': '3906-LS', 'Muni': 'WOONSOCKET', 'NAD83_Lat': 42.003382, 'FacID': '16097', 'Addrs': '150 HAMLET AVENUE', 'Status': 'SRO'}, 'type': 'Feature', 'geometry': {'type': 'Point', 'coordinates': (327942.1999280416, 335248.63257141854)}}, {'properties': {'RISPF_X': 327992.1, 'RISPF_Y': 339377.3, 'Name': 'WOONSOCKET DB', 'XY_Source': 'E911', 'Date_': '19900327', 'NAD83_Lon': -71.500336, 'PloverID': '1805', 'PrjCode': '3903-LS', 'Muni': 'WOONSOCKET', 'NAD83_Lat': 42.014711, 'FacID': '288', 'Addrs': '1023 SOCIAL STREET', 'Status': 'I'}, 'type': 'Feature', 'geometry': {'type': 'Point', 'coordinates': (327992.1259797551, 339377.3489920944)}}, {'properties': {'RISPF_X': 353680.7, 'RISPF_Y': 264423.3, 'Name': 'ASTRO PLATING', 'XY_Source': 'TOPO', 'Date_': '19931123', 'NAD83_Lon': -71.406109, 'PloverID': '\\x00\\x00\\x00\\x00\\x00\\x00\\x00\\x00', 'PrjCode': '2867-LS', 'Muni': 'PROVIDENCE', 'NAD83_Lat': 41.808984, 'FacID': b'                                                                                                                                                                                                                                                              ', 'Addrs': '145-147 RHODES STREET', 'Status': 'SRO'}, 'type': 'Feature', 'geometry': {'type': 'Point', 'coordinates': (353680.6940434827, 264423.26575784234)}}, {'properties': {'RISPF_X': 350710.2, 'RISPF_Y': 270235.8, 'Name': 'CAPITAL CENTER PROJECT', 'XY_Source': 'TOPO', 'Date_': '19880414', 'NAD83_Lon': -71.416985, 'PloverID': '5799', 'PrjCode': '2803-LS', 'Muni': 'PROVIDENCE', 'NAD83_Lat': 41.824944, 'FacID': '15942', 'Addrs': 'WEST EXCHANGE STREET', 'Status': 'SRO'}, 'type': 'Feature', 'geometry': {'type': 'Point', 'coordinates': (350710.15625, 270235.84375)}}, {'properties': {'RISPF_X': 350700.7, 'RISPF_Y': 270100.3, 'Name': 'PROVIDENCE CONVENTION CENTER AUTHORITY', 'XY_Source': 'E911', 'Date_': '19901101', 'NAD83_Lon': -71.41702, 'PloverID': '2482', 'PrjCode': '2818-LS', 'Muni': 'PROVIDENCE', 'NAD83_Lat': 41.824572, 'FacID': '363', 'Addrs': 'SABIN STREET', 'Status': 'I'}, 'type': 'Feature', 'geometry': {'type': 'Point', 'coordinates': (350700.6747226715, 270100.3494230136)}}, {'properties': {'RISPF_X': 374665.0, 'RISPF_Y': 235038.6, 'Name': 'RI COUNTRY CLUB', 'XY_Source': 'E911', 'Date_': '19910801', 'NAD83_Lon': -71.329353, 'PloverID': '5884', 'PrjCode': '0105-ST', 'Muni': 'BARRINGTON', 'NAD83_Lat': 41.728256, 'FacID': '16106', 'Addrs': '150 WYATT RD', 'Status': 'I'}, 'type': 'Feature', 'geometry': {'type': 'Point', 'coordinates': (374664.96875, 235038.5625)}}, {'properties': {'RISPF_X': 368491.0, 'RISPF_Y': 241724.4, 'Name': \"LAVIN'S MARINA\", 'XY_Source': 'E911', 'Date_': '19891027', 'NAD83_Lon': -71.351929, 'PloverID': '2608', 'PrjCode': '0102-LS', 'Muni': 'BARRINGTON', 'NAD83_Lat': 41.746635, 'FacID': '534', 'Addrs': '110 SHORE DRIVE', 'Status': 'I'}, 'type': 'Feature', 'geometry': {'type': 'Point', 'coordinates': (368491.03125, 241724.4375)}}, {'properties': {'RISPF_X': 385161.6, 'RISPF_Y': 237522.1, 'Name': 'STRIPER MARINA', 'XY_Source': 'E911', 'Date_': '19910328', 'NAD83_Lon': -71.290878, 'PloverID': '2718', 'PrjCode': '0104-LS', 'Muni': 'BARRINGTON', 'NAD83_Lat': 41.735008, 'FacID': '723', 'Addrs': 'TYLER PT. RD.', 'Status': 'I'}, 'type': 'Feature', 'geometry': {'type': 'Point', 'coordinates': (385161.59375, 237522.125)}}, {'properties': {'RISPF_X': 381172.8, 'RISPF_Y': 238765.5, 'Name': 'BARRINGTON GETTY', 'XY_Source': 'E911', 'Date_': '19920101', 'NAD83_Lon': -71.305482, 'PloverID': '1756', 'PrjCode': '0106-LS', 'Muni': 'BARRINGTON', 'NAD83_Lat': 41.738446, 'FacID': '448', 'Addrs': '227 COUNTY ROAD', 'Status': 'A'}, 'type': 'Feature', 'geometry': {'type': 'Point', 'coordinates': (381172.8263766691, 238765.50428442657)}}, {'properties': {'RISPF_X': 376587.7, 'RISPF_Y': 238819.8, 'Name': \"VIC'S TEXACO\", 'XY_Source': 'E911', 'Date_': '19941230', 'NAD83_Lon': -71.322281, 'PloverID': '2047', 'PrjCode': '0110-LS', 'Muni': 'BARRINGTON', 'NAD83_Lat': 41.738622, 'FacID': '8', 'Addrs': '424 MAPLE AVENUE', 'Status': 'SRO'}, 'type': 'Feature', 'geometry': {'type': 'Point', 'coordinates': (376587.71645241976, 238819.75220742822)}}, {'properties': {'RISPF_X': 385495.3, 'RISPF_Y': 215974.3, 'Name': 'BRISTOL YACHT CLUB', 'XY_Source': 'E911', 'Date_': '19910222', 'NAD83_Lon': -71.289848, 'PloverID': '3100', 'PrjCode': '0206-LS', 'Muni': 'BRISTOL', 'NAD83_Lat': 41.675873, 'FacID': '1273', 'Addrs': 'POPPASQUASH ROAD', 'Status': 'SRO'}, 'type': 'Feature', 'geometry': {'type': 'Point', 'coordinates': (385495.28125, 215974.3125)}}, {'properties': {'RISPF_X': 392511.1, 'RISPF_Y': 222820.5, 'Name': 'J.P. SERPA CREAMERY', 'XY_Source': 'E911', 'Date_': '19911101', 'NAD83_Lon': -71.264099, 'PloverID': '5890', 'PrjCode': '0207-LS', 'Muni': 'BRISTOL', 'NAD83_Lat': 41.694611, 'FacID': '16114', 'Addrs': '591 METACOM AVENUE', 'Status': 'I'}, 'type': 'Feature', 'geometry': {'type': 'Point', 'coordinates': (392511.0779783353, 222820.53190934658)}}, {'properties': {'RISPF_X': 388832.9, 'RISPF_Y': 213305.5, 'Name': 'COMMUNITY CENTER', 'XY_Source': 'TOPO', 'Date_': '19920102', 'NAD83_Lon': -71.277657, 'PloverID': '4434', 'PrjCode': '0208-LS', 'Muni': 'BRISTOL', 'NAD83_Lat': 41.668526, 'FacID': '2879', 'Addrs': 'THAMES STREET', 'Status': 'SRO'}, 'type': 'Feature', 'geometry': {'type': 'Point', 'coordinates': (388832.90625, 213305.46875)}}, {'properties': {'RISPF_X': 392191.6, 'RISPF_Y': 214113.1, 'Name': 'DEPARTMENT OF PUBLIC WORKS', 'XY_Source': 'E911', 'Date_': '19890425', 'NAD83_Lon': -71.265356, 'PloverID': '3456', 'PrjCode': '0210-LS', 'Muni': 'BRISTOL', 'NAD83_Lat': 41.670718, 'FacID': '1732', 'Addrs': '111 MT. HOPE AVENUE', 'Status': 'SRO'}, 'type': 'Feature', 'geometry': {'type': 'Point', 'coordinates': (392191.5691029206, 214113.07425867766)}}, {'properties': {'RISPF_X': 388125.4, 'RISPF_Y': 224240.6, 'Name': 'FLEET BANK', 'XY_Source': 'TOPO', 'Date_': '19901102', 'NAD83_Lon': -71.280144, 'PloverID': '5814', 'PrjCode': '0205-LS', 'Muni': 'BRISTOL', 'NAD83_Lat': 41.69854, 'FacID': '15969', 'Addrs': '315 HOPE STREET', 'Status': 'SRO'}, 'type': 'Feature', 'geometry': {'type': 'Point', 'coordinates': (388125.4375, 224240.5625)}}, {'properties': {'RISPF_X': 388958.3, 'RISPF_Y': 214212.9, 'Name': 'U S POSTAL SERVICE', 'XY_Source': 'E911', 'Date_': '19940902', 'NAD83_Lon': -71.277189, 'PloverID': '3829', 'PrjCode': '0216-LS', 'Muni': 'BRISTOL', 'NAD83_Lat': 41.671015, 'FacID': '2205', 'Addrs': '515 HOPE STREET', 'Status': 'SRO'}, 'type': 'Feature', 'geometry': {'type': 'Point', 'coordinates': (388958.26257742196, 214212.90870467573)}}, {'properties': {'RISPF_X': 391109.8, 'RISPF_Y': 222646.3, 'Name': 'HYNSON ELECTRICAL REPAIRING', 'XY_Source': 'E911', 'Date_': '19930726', 'NAD83_Lon': -71.269232, 'PloverID': '4202', 'PrjCode': '0212-LS', 'Muni': 'BRISTOL', 'NAD83_Lat': 41.694143, 'FacID': '2623', 'Addrs': '93 GOODING AVE.', 'Status': 'I'}, 'type': 'Feature', 'geometry': {'type': 'Point', 'coordinates': (391109.78780192137, 222646.30784834176)}}, {'properties': {'RISPF_X': 389811.1, 'RISPF_Y': 214675.8, 'Name': 'FIRST CONGREGATIONAL CHURCH', 'XY_Source': 'E911', 'Date_': '19941230', 'NAD83_Lon': -71.274063, 'PloverID': '6234', 'PrjCode': '0217-ST', 'Muni': 'BRISTOL', 'NAD83_Lat': 41.672279, 'FacID': '16837', 'Addrs': '281 HIGH STREET', 'Status': 'SRO'}, 'type': 'Feature', 'geometry': {'type': 'Point', 'coordinates': (389811.125, 214675.8125)}}, {'properties': {'RISPF_X': 389341.8, 'RISPF_Y': 213740.5, 'Name': 'TOWN OF BRISTOL', 'XY_Source': 'E911', 'Date_': '19940201', 'NAD83_Lon': -71.27579, 'PloverID': '4433', 'PrjCode': '0213-LS', 'Muni': 'BRISTOL', 'NAD83_Lat': 41.669716, 'FacID': '2878', 'Addrs': '9 COURT STREET', 'Status': 'SRO'}, 'type': 'Feature', 'geometry': {'type': 'Point', 'coordinates': (389341.8001961708, 213740.5297281742)}}, {'properties': {'RISPF_X': 257808.9, 'RISPF_Y': 332954.7, 'Name': 'ZAMBARANO MEMORIAL HOSPITAL', 'XY_Source': 'E911', 'Date_': '19940912', 'NAD83_Lon': -71.758522, 'PloverID': '676', 'PrjCode': '0309-LS', 'Muni': 'BURRILLVILLE', 'NAD83_Lat': 41.996796, 'FacID': '1533', 'Addrs': '2090 WALLUM LAKE ROAD', 'Status': 'I'}, 'type': 'Feature', 'geometry': {'type': 'Point', 'coordinates': (257808.875, 332954.75)}}, {'properties': {'RISPF_X': 276252.6, 'RISPF_Y': 322133.0, 'Name': \"MOE'S AUTO SERVICE\", 'XY_Source': 'E911', 'Date_': '19930826', 'NAD83_Lon': -71.690584, 'PloverID': '4207', 'PrjCode': '0306-LS', 'Muni': 'BURRILLVILLE', 'NAD83_Lat': 41.967232, 'FacID': '2629', 'Addrs': '89 CHAPEL ST. (HARRISVILLE)', 'Status': 'I'}, 'type': 'Feature', 'geometry': {'type': 'Point', 'coordinates': (276252.6031834842, 322133.02059430745)}}, {'properties': {'RISPF_X': 279315.9, 'RISPF_Y': 321912.4, 'Name': \"PAT'S SERVICE STATION\", 'XY_Source': 'E911', 'Date_': '19930524', 'NAD83_Lon': -71.679319, 'PloverID': '3137', 'PrjCode': '0304-LS', 'Muni': 'BURRILLVILLE', 'NAD83_Lat': 41.966645, 'FacID': '1326', 'Addrs': '438 CHAPEL STREET (HARRISVILLE)', 'Status': 'I'}, 'type': 'Feature', 'geometry': {'type': 'Point', 'coordinates': (279315.8690017536, 321912.37375151366)}}, {'properties': {'RISPF_X': 280459.5, 'RISPF_Y': 320851.9, 'Name': 'MIDWAY', 'XY_Source': 'E911', 'Date_': '19940614', 'NAD83_Lon': -71.675105, 'PloverID': '3126', 'PrjCode': '0307-LS', 'Muni': 'BURRILLVILLE', 'NAD83_Lat': 41.963741, 'FacID': '1311', 'Addrs': '216 MAIN STREET', 'Status': 'A'}, 'type': 'Feature', 'geometry': {'type': 'Point', 'coordinates': (280459.5320687555, 320851.9355836734)}}, {'properties': {'RISPF_X': 292133.3, 'RISPF_Y': 324333.5, 'Name': 'GLENDALE SERVICE STATION', 'XY_Source': 'E911', 'Date_': '19950130', 'NAD83_Lon': -71.632203, 'PloverID': '2676', 'PrjCode': '0310-LS', 'Muni': 'BURRILLVILLE', 'NAD83_Lat': 41.973352, 'FacID': '676', 'Addrs': '1915 VICTORY HIGHWAY', 'Status': 'I'}, 'type': 'Feature', 'geometry': {'type': 'Point', 'coordinates': (292133.25183150545, 324333.48931609094)}}, {'properties': {'RISPF_X': 270598.6, 'RISPF_Y': 321118.9, 'Name': 'COMMUNITY BAPTIST CHURCH', 'XY_Source': 'E911', 'Date_': '19910101', 'NAD83_Lon': -71.711365, 'PloverID': '5818', 'PrjCode': '0303-LS', 'Muni': 'BURRILLVILLE', 'NAD83_Lat': 41.964413, 'FacID': '15976', 'Addrs': 'CHURCH STREET', 'Status': 'I'}, 'type': 'Feature', 'geometry': {'type': 'Point', 'coordinates': (270598.625, 321118.90625)}}, {'properties': {'RISPF_X': 354500.9, 'RISPF_Y': 295012.4, 'Name': 'BERARD OIL', 'XY_Source': 'E911', 'Date_': '19931021', 'NAD83_Lon': -71.402974, 'PloverID': '2861', 'PrjCode': '0405-LS', 'Muni': 'CENTRAL FALLS', 'NAD83_Lat': 41.892925, 'FacID': '959', 'Addrs': '1063 LONSDALE', 'Status': 'SRO'}, 'type': 'Feature', 'geometry': {'type': 'Point', 'coordinates': (354500.85150550306, 295012.41311584413)}}, {'properties': {'RISPF_X': 358744.8, 'RISPF_Y': 295024.6, 'Name': 'SHELL STATION - BSCF', 'XY_Source': 'E911', 'Date_': '19900701', 'NAD83_Lon': -71.387387, 'PloverID': '1898', 'PrjCode': '0401-LS', 'Muni': 'CENTRAL FALLS', 'NAD83_Lat': 41.892944, 'FacID': '914', 'Addrs': '957 BROAD STREET', 'Status': 'I'}, 'type': 'Feature', 'geometry': {'type': 'Point', 'coordinates': (358744.8443298377, 295024.56565058976)}}, {'properties': {'RISPF_X': 359529.0, 'RISPF_Y': 292828.7, 'Name': 'CENTRAL BEVERAGE CORP.', 'XY_Source': 'E911', 'Date_': '19931021', 'NAD83_Lon': -71.384518, 'PloverID': '3563', 'PrjCode': '0404-LS', 'Muni': 'CENTRAL FALLS', 'NAD83_Lat': 41.886915, 'FacID': '1871', 'Addrs': '500 HIGH ST.', 'Status': 'SRO'}, 'type': 'Feature', 'geometry': {'type': 'Point', 'coordinates': (359529.03764333576, 292828.73310001194)}}, {'properties': {'RISPF_X': 356111.9, 'RISPF_Y': 293193.1, 'Name': 'CENTRAL FALLS COMMUNITY CENTER', 'XY_Source': 'E911', 'Date_': '19930413', 'NAD83_Lon': -71.397065, 'PloverID': '6026', 'PrjCode': '0403-LS', 'Muni': 'CENTRAL FALLS', 'NAD83_Lat': 41.887927, 'FacID': '16419', 'Addrs': '361 COWDEN STREET', 'Status': 'I'}, 'type': 'Feature', 'geometry': {'type': 'Point', 'coordinates': (356111.8692808375, 293193.0657046735)}}, {'properties': {'RISPF_X': 357305.8, 'RISPF_Y': 294042.6, 'Name': \"CHAMP'S GARAGE\", 'XY_Source': 'E911', 'Date_': '19950206', 'NAD83_Lon': -71.392677, 'PloverID': '6315', 'PrjCode': '0407-LS', 'Muni': 'CENTRAL FALLS', 'NAD83_Lat': 41.890255, 'FacID': '16985', 'Addrs': '65 PERRY STREET', 'Status': 'SRO'}, 'type': 'Feature', 'geometry': {'type': 'Point', 'coordinates': (357305.83375642076, 294042.6214202568)}}, {'properties': {'RISPF_X': 292651.0, 'RISPF_Y': 110394.6, 'Name': \"BRIAN'S POST ROAD GULF\", 'XY_Source': 'E911', 'Date_': '19890628', 'NAD83_Lon': -71.62912, 'PloverID': '2586', 'PrjCode': '0501-LS', 'Muni': 'CHARLESTOWN', 'NAD83_Lat': 41.386242, 'FacID': '507', 'Addrs': '4085A OLD POST ROAD', 'Status': 'I'}, 'type': 'Feature', 'geometry': {'type': 'Point', 'coordinates': (292651.00834191963, 110394.62880884111)}}, {'properties': {'RISPF_X': 288961.0, 'RISPF_Y': 109752.8, 'Name': 'RI DOT GARAGE', 'XY_Source': 'E911', 'Date_': '19920113', 'NAD83_Lon': -71.642563, 'PloverID': '1598', 'PrjCode': '0504-ST', 'Muni': 'CHARLESTOWN', 'NAD83_Lat': 41.384464, 'FacID': '1279', 'Addrs': 'CROSS MILLS RD.', 'Status': 'I'}, 'type': 'Feature', 'geometry': {'type': 'Point', 'coordinates': (288961.0, 109752.8203125)}}, {'properties': {'RISPF_X': 288885.2, 'RISPF_Y': 109284.3, 'Name': 'JACKSON SURVEYING', 'XY_Source': 'E911', 'Date_': '19920727', 'NAD83_Lon': -71.642836, 'PloverID': '5983', 'PrjCode': '0506-LS', 'Muni': 'CHARLESTOWN', 'NAD83_Lat': 41.383178, 'FacID': '16298', 'Addrs': '4450 OLD POST ROAD', 'Status': 'I'}, 'type': 'Feature', 'geometry': {'type': 'Point', 'coordinates': (288885.1730258353, 109284.25406109542)}}, {'properties': {'RISPF_X': 312227.9, 'RISPF_Y': 227910.4, 'Name': 'CUMBERLAND FARMS', 'XY_Source': 'E911', 'Date_': '19930113', 'NAD83_Lon': -71.558067, 'PloverID': '1657', 'PrjCode': '0608-LS', 'Muni': 'COVENTRY', 'NAD83_Lat': 41.708807, 'FacID': '770', 'Addrs': '466 KNOTTY OAK RD.', 'Status': 'I'}, 'type': 'Feature', 'geometry': {'type': 'Point', 'coordinates': (312227.91571033746, 227910.42166392505)}}, {'properties': {'RISPF_X': 315133.2, 'RISPF_Y': 223190.1, 'Name': 'SHELL STATION', 'XY_Source': 'E911', 'Date_': '19871001', 'NAD83_Lon': -71.547417, 'PloverID': '2067', 'PrjCode': '0601-LS', 'Muni': 'COVENTRY', 'NAD83_Lat': 41.695857, 'FacID': '787', 'Addrs': '642 WASHINGTON STREET', 'Status': 'I'}, 'type': 'Feature', 'geometry': {'type': 'Point', 'coordinates': (315133.22486033663, 223190.0902253464)}}, {'properties': {'RISPF_X': 308481.4, 'RISPF_Y': 217639.9, 'Name': 'GETTY STATION (COVENTRY TIRE)', 'XY_Source': 'E911', 'Date_': '19920307', 'NAD83_Lon': -71.571756, 'PloverID': '2543', 'PrjCode': '0605-LS', 'Muni': 'COVENTRY', 'NAD83_Lat': 41.680613, 'FacID': '459', 'Addrs': '925 TIOGUE AVENUE', 'Status': 'SRO'}, 'type': 'Feature', 'geometry': {'type': 'Point', 'coordinates': (308481.44682533666, 217639.91923909634)}}, {'properties': {'RISPF_X': 312016.3, 'RISPF_Y': 218537.8, 'Name': 'CUMBERLAND FARMS', 'XY_Source': 'E911', 'Date_': '19920906', 'NAD83_Lon': -71.558819, 'PloverID': '1673', 'PrjCode': '0607-LS', 'Muni': 'COVENTRY', 'NAD83_Lat': 41.683085, 'FacID': '767', 'Addrs': '710 TIOGUE AVENUE', 'Status': 'I'}, 'type': 'Feature', 'geometry': {'type': 'Point', 'coordinates': (312016.267183505, 218537.84001542628)}}, {'properties': {'RISPF_X': 309814.0, 'RISPF_Y': 221146.6, 'Name': 'SHELL STATION', 'XY_Source': 'E911', 'Date_': '19940427', 'NAD83_Lon': -71.566888, 'PloverID': '2830', 'PrjCode': '0614-LS', 'Muni': 'COVENTRY', 'NAD83_Lat': 41.69024, 'FacID': '908', 'Addrs': '176 MAIN STREET', 'Status': 'I'}, 'type': 'Feature', 'geometry': {'type': 'Point', 'coordinates': (309813.9976379201, 221146.57922051102)}}, {'properties': {'RISPF_X': 292627.5, 'RISPF_Y': 221580.1, 'Name': 'NIKE SITE PR-69 (USACOE)', 'XY_Source': 'E911', 'Date_': '19930824', 'NAD83_Lon': -71.629814, 'PloverID': '6062', 'PrjCode': '0612-LS', 'Muni': 'COVENTRY', 'NAD83_Lat': 41.691376, 'FacID': '16486', 'Addrs': 'PROVIDENT PLACE RD', 'Status': 'I'}, 'type': 'Feature', 'geometry': {'type': 'Point', 'coordinates': (292627.53125, 221580.140625)}}, {'properties': {'RISPF_X': 333936.8, 'RISPF_Y': 238030.4, 'Name': \"D'ABROSCA'S EXXON\", 'XY_Source': 'E911', 'Date_': '19881121', 'NAD83_Lon': -71.478554, 'PloverID': '1883', 'PrjCode': '0702-LS', 'Muni': 'CRANSTON', 'NAD83_Lat': 41.736591, 'FacID': '1265', 'Addrs': '1195 OAKLAWN AVENUE', 'Status': 'I'}, 'type': 'Feature', 'geometry': {'type': 'Point', 'coordinates': (333936.78125, 238030.390625)}}, {'properties': {'RISPF_X': 333905.5, 'RISPF_Y': 241795.8, 'Name': 'SHELL STATION - CRANSTON', 'XY_Source': 'E911', 'Date_': '19891016', 'NAD83_Lon': -71.478665, 'PloverID': '1884', 'PrjCode': '0703-LS', 'Muni': 'CRANSTON', 'NAD83_Lat': 41.746925, 'FacID': '788', 'Addrs': '908 OAKLAWN AVENUE', 'Status': 'I'}, 'type': 'Feature', 'geometry': {'type': 'Point', 'coordinates': (333905.51291584823, 241795.78538798622)}}, {'properties': {'RISPF_X': 341500.3, 'RISPF_Y': 255323.0, 'Name': 'GENERAL OIL COMPANY', 'XY_Source': 'E911', 'Date_': '19920519', 'NAD83_Lon': -71.450806, 'PloverID': '1747', 'PrjCode': '0704-LS', 'Muni': 'CRANSTON', 'NAD83_Lat': 41.784039, 'FacID': '851', 'Addrs': '208 GANSETT AVENUE', 'Status': 'SRO'}, 'type': 'Feature', 'geometry': {'type': 'Point', 'coordinates': (341500.34375, 255323.03125)}}, {'properties': {'RISPF_X': 354508.0, 'RISPF_Y': 251521.5, 'Name': 'CRANSTON FIRE DEPARTMENT', 'XY_Source': 'E911', 'Date_': '19901105', 'NAD83_Lon': -71.403128, 'PloverID': '2975', 'PrjCode': '0705-LS', 'Muni': 'CRANSTON', 'NAD83_Lat': 41.773576, 'FacID': '1107', 'Addrs': '131 PARK AVENUE', 'Status': 'SRO'}, 'type': 'Feature', 'geometry': {'type': 'Point', 'coordinates': (354508.02603183687, 251521.50895608962)}}, {'properties': {'RISPF_X': 333626.1, 'RISPF_Y': 240946.6, 'Name': 'MOBIL STATION', 'XY_Source': 'E911', 'Date_': '19930307', 'NAD83_Lon': -71.47969, 'PloverID': '1856', 'PrjCode': '0708-LS', 'Muni': 'CRANSTON', 'NAD83_Lat': 41.744595, 'FacID': '1510', 'Addrs': '975 OAKLAWN AVENUE', 'Status': 'SRO'}, 'type': 'Feature', 'geometry': {'type': 'Point', 'coordinates': (333626.0612341687, 240946.62820301205)}}, {'properties': {'RISPF_X': 355097.2, 'RISPF_Y': 253331.1, 'Name': 'EDGEWOOD SERVICE', 'XY_Source': 'E911', 'Date_': '19910510', 'NAD83_Lon': -71.40096, 'PloverID': '3147', 'PrjCode': '0710-LS', 'Muni': 'CRANSTON', 'NAD83_Lat': 41.77854, 'FacID': '1337', 'Addrs': '1745 BROAD STREET', 'Status': 'SRO'}, 'type': 'Feature', 'geometry': {'type': 'Point', 'coordinates': (355097.22924975306, 253331.1437882632)}}, {'properties': {'RISPF_X': 322338.7, 'RISPF_Y': 257079.7, 'Name': 'EAST GREENWICH DAIRY', 'XY_Source': 'E911', 'Date_': '19911107', 'NAD83_Lon': -71.521065, 'PloverID': '3026', 'PrjCode': '0711-LS', 'Muni': 'CRANSTON', 'NAD83_Lat': 41.788868, 'FacID': '1184', 'Addrs': '2032 PLAINFIELD PIKE', 'Status': 'I'}, 'type': 'Feature', 'geometry': {'type': 'Point', 'coordinates': (322338.65625, 257079.71875)}}, {'properties': {'RISPF_X': 337748.3, 'RISPF_Y': 238298.5, 'Name': 'EXPRESS SERVICE STATION', 'XY_Source': 'TOPO', 'Date_': '19920205', 'NAD83_Lon': -71.464589, 'PloverID': '2427', 'PrjCode': '0712-LS', 'Muni': 'CRANSTON', 'NAD83_Lat': 41.737324, 'FacID': '278', 'Addrs': '100 EAST AVENUE', 'Status': 'SRO'}, 'type': 'Feature', 'geometry': {'type': 'Point', 'coordinates': (337748.2527929209, 238298.534089759)}}, {'properties': {'RISPF_X': 339663.5, 'RISPF_Y': 244895.7, 'Name': 'DEVLIN, WILLIAM', 'XY_Source': 'E911', 'Date_': '19920409', 'NAD83_Lon': -71.457559, 'PloverID': '2977', 'PrjCode': '0714-LS', 'Muni': 'CRANSTON', 'NAD83_Lat': 41.755426, 'FacID': '1110', 'Addrs': '160 SOCKANOSSET CROSS RD.', 'Status': 'SRO'}, 'type': 'Feature', 'geometry': {'type': 'Point', 'coordinates': (339663.50027475506, 244895.7151210904)}}, {'properties': {'RISPF_X': 345773.5, 'RISPF_Y': 253728.0, 'Name': 'FIRE STATION #2', 'XY_Source': 'E911', 'Date_': '19920714', 'NAD83_Lon': -71.435142, 'PloverID': '2979', 'PrjCode': '0716-LS', 'Muni': 'CRANSTON', 'NAD83_Lat': 41.779654, 'FacID': '1112', 'Addrs': '301 PONTIAC AVENUE', 'Status': 'SRO'}, 'type': 'Feature', 'geometry': {'type': 'Point', 'coordinates': (345773.5005219206, 253727.98157726228)}}, {'properties': {'RISPF_X': 341848.7, 'RISPF_Y': 260955.8, 'Name': 'PICERNE, ERNIE', 'XY_Source': 'E911', 'Date_': '19920522', 'NAD83_Lon': -71.449516, 'PloverID': '4179', 'PrjCode': '0717-LS', 'Muni': 'CRANSTON', 'NAD83_Lat': 41.799496, 'FacID': '2600', 'Addrs': '1015 CRANSTON STREET', 'Status': 'SRO'}, 'type': 'Feature', 'geometry': {'type': 'Point', 'coordinates': (341848.6875, 260955.78125)}}, {'properties': {'RISPF_X': 341455.5, 'RISPF_Y': 251288.8, 'Name': 'SHELL STATION', 'XY_Source': 'E911', 'Date_': '19921130', 'NAD83_Lon': -71.450979, 'PloverID': '1964', 'PrjCode': '0719-LS', 'Muni': 'CRANSTON', 'NAD83_Lat': 41.772968, 'FacID': '791', 'Addrs': '1036 RESERVOIR AVENUE', 'Status': 'SRO'}, 'type': 'Feature', 'geometry': {'type': 'Point', 'coordinates': (341455.50653325394, 251288.78304359317)}}, {'properties': {'RISPF_X': 330271.7, 'RISPF_Y': 239672.4, 'Name': 'LAWN BEAUTICIANS', 'XY_Source': 'E911', 'Date_': '19921204', 'NAD83_Lon': -71.491982, 'PloverID': '4446', 'PrjCode': '0720-LS', 'Muni': 'CRANSTON', 'NAD83_Lat': 41.741099, 'FacID': '2896', 'Addrs': '460 NATICK AVENUE', 'Status': 'I'}, 'type': 'Feature', 'geometry': {'type': 'Point', 'coordinates': (330271.6617750041, 239672.364675425)}}, {'properties': {'RISPF_X': 342964.4, 'RISPF_Y': 261610.9, 'Name': \"VITO'S TOWING SERVICE\", 'XY_Source': 'E911', 'Date_': '19930803', 'NAD83_Lon': -71.445423, 'PloverID': '3351', 'PrjCode': '0725-LS', 'Muni': 'CRANSTON', 'NAD83_Lat': 41.801292, 'FacID': '1597', 'Addrs': '936 CRANSTON STREET', 'Status': 'SRO'}, 'type': 'Feature', 'geometry': {'type': 'Point', 'coordinates': (342964.3762189187, 261610.9067562595)}}, {'properties': {'RISPF_X': 341289.2, 'RISPF_Y': 242228.5, 'Name': 'RI DOT GARAGE', 'XY_Source': 'E911', 'Date_': '19930730', 'NAD83_Lon': -71.451607, 'PloverID': '1903', 'PrjCode': '0726-LS', 'Muni': 'CRANSTON', 'NAD83_Lat': 41.748104, 'FacID': '1293', 'Addrs': '1310 PONTIAC AVENUE', 'Status': 'I'}, 'type': 'Feature', 'geometry': {'type': 'Point', 'coordinates': (341289.21875, 242228.546875)}}, {'properties': {'RISPF_X': 338671.5, 'RISPF_Y': 238093.9, 'Name': 'WASTE MANAGEMENT OF R.I.', 'XY_Source': 'E911', 'Date_': '19930917', 'NAD83_Lon': -71.461206, 'PloverID': '4652', 'PrjCode': '0727-LS', 'Muni': 'CRANSTON', 'NAD83_Lat': 41.736761, 'FacID': '3133', 'Addrs': '1688 PONTIAC AVE.', 'Status': 'I'}, 'type': 'Feature', 'geometry': {'type': 'Point', 'coordinates': (338671.52916158736, 238093.90326542407)}}, {'properties': {'RISPF_X': 341177.1, 'RISPF_Y': 243494.2, 'Name': 'SHELL STATION', 'XY_Source': 'E911', 'Date_': '19930920', 'NAD83_Lon': -71.452015, 'PloverID': '2750', 'PrjCode': '0728-LS', 'Muni': 'CRANSTON', 'NAD83_Lat': 41.751578, 'FacID': '792', 'Addrs': '1207 PONTIAC AVENUE', 'Status': 'SRO'}, 'type': 'Feature', 'geometry': {'type': 'Point', 'coordinates': (341177.12749683857, 243494.20742542297)}}, {'properties': {'RISPF_X': 340661.9, 'RISPF_Y': 240757.5, 'Name': 'PEPSI COLA BOTTLING', 'XY_Source': 'E911', 'Date_': '19931115', 'NAD83_Lon': -71.453909, 'PloverID': '3084', 'PrjCode': '0730-LS', 'Muni': 'CRANSTON', 'NAD83_Lat': 41.744068, 'FacID': '1247', 'Addrs': '1400 PONTIAC AVE.', 'Status': 'SRO'}, 'type': 'Feature', 'geometry': {'type': 'Point', 'coordinates': (340661.85031216964, 240757.5239224285)}}, {'properties': {'RISPF_X': 352870.9, 'RISPF_Y': 250941.7, 'Name': 'FRIENDLY AUTO REPAIR', 'XY_Source': 'E911', 'Date_': '19940910', 'NAD83_Lon': -71.409132, 'PloverID': '1742', 'PrjCode': '0737-LS', 'Muni': 'CRANSTON', 'NAD83_Lat': 41.77199, 'FacID': '1607', 'Addrs': '266 PARK AVENUE', 'Status': 'I'}, 'type': 'Feature', 'geometry': {'type': 'Point', 'coordinates': (352870.85017233714, 250941.71910517663)}}, {'properties': {'RISPF_X': 338484.2, 'RISPF_Y': 326280.2, 'Name': 'SHELL STATION', 'XY_Source': 'E911', 'Date_': '19890101', 'NAD83_Lon': -71.461749, 'PloverID': '1958', 'PrjCode': '0801-LS', 'Muni': 'CUMBERLAND', 'NAD83_Lat': 41.978764, 'FacID': '793', 'Addrs': '3486 MENDON ROAD', 'Status': 'I'}, 'type': 'Feature', 'geometry': {'type': 'Point', 'coordinates': (338484.22544612945, 326280.2249146085)}},